{"type": "FeatureCollection", "id": "http://lod.squirrel.link/data/limes/daicus/LimesDaicusFeatures", "name": "Limes Daicus Features", "features": [{"type": "Feature", "id": "http://lod.squirrel.link/data/limes/daicus/aadec8db-70f9-4c40-833a-2a7c39c631d2", "name": "Kastell C\u0103tunele (aadec8db-70f9-4c40-833a-2a7c39c631d2)", "dateprops": [], "properties": {}, "geometry": {"type": "Point", "coordinates": [22.924444, 44.838889], "crs": "4326"}}, {"type": "Feature", "id": "http://lod.squirrel.link/data/limes/daicus/ae458e0d-85d0-4756-b265-db4db5bb7fe2", "name": "Kastell Inl\u0103ceni (ae458e0d-85d0-4756-b265-db4db5bb7fe2)", "dateprops": [], "properties": {}, "geometry": {"type": "Point", "coordinates": [25.121806, 46.431319], "crs": "4326"}}, {"type": "Feature", "id": "http://lod.squirrel.link/data/limes/daicus/b6e369cd-722a-4a1c-a984-538bb26f3777", "name": "Kastell Buciumi (b6e369cd-722a-4a1c-a984-538bb26f3777)", "dateprops": [], "properties": {}, "geometry": {"type": "Point", "coordinates": [23.044569, 47.048264], "crs": "4326"}}, {"type": "Feature", "id": "http://lod.squirrel.link/data/limes/daicus/c3a471a8-ab67-4e9c-b127-1eff017b0cb4", "name": "Kastell Albota (c3a471a8-ab67-4e9c-b127-1eff017b0cb4)", "dateprops": [], "properties": {}, "geometry": {"type": "Point", "coordinates": [24.8375, 44.771389], "crs": "4326"}}, {"type": "Feature", "id": "http://lod.squirrel.link/data/limes/daicus/cba75304-f136-465d-90fb-56dff3acc018", "name": "Kastell Eno\u015fe\u015fti (Acidava) (cba75304-f136-465d-90fb-56dff3acc018)", "dateprops": [], "properties": {}, "geometry": {"type": "Point", "coordinates": [24.30325, 44.374806], "crs": "4326"}}, {"type": "Feature", "id": "http://lod.squirrel.link/data/limes/daicus/d2adbbd5-f4a7-471d-a817-b28e37bcbfb1", "name": "Kastell Banatska Palanka (d2adbbd5-f4a7-471d-a817-b28e37bcbfb1)", "dateprops": [], "properties": {}, "geometry": {"type": "Point", "coordinates": [21.331111, 44.845], "crs": "4326"}}, {"type": "Feature", "id": "http://lod.squirrel.link/data/limes/daicus/d92ef45f-91c4-442e-b279-61f17fbccb7c", "name": "Kastell Ili\u015fua (Arcobara) (d92ef45f-91c4-442e-b279-61f17fbccb7c)", "dateprops": [], "properties": {}, "geometry": {"type": "Point", "coordinates": [24.095361, 47.210528], "crs": "4326"}}, {"type": "Feature", "id": "http://lod.squirrel.link/data/limes/daicus/e0423dfe-4fdf-4bf6-8453-97d7bee4d031", "name": "Kastell Ghioca (e0423dfe-4fdf-4bf6-8453-97d7bee4d031)", "dateprops": [], "properties": {}, "geometry": {"type": "Point", "coordinates": [24.761056, 44.307778], "crs": "4326"}}, {"type": "Feature", "id": "http://lod.squirrel.link/data/limes/daicus/e3899f66-1234-4a44-b16e-2ead1e0bf696", "name": "Kastell Cincsor (e3899f66-1234-4a44-b16e-2ead1e0bf696)", "dateprops": [], "properties": {}, "geometry": {"type": "Point", "coordinates": [24.866611, 45.842519], "crs": "4326"}}, {"type": "Feature", "id": "http://lod.squirrel.link/data/limes/daicus/e69e6cb2-cded-446c-b159-daec78476f43", "name": "Kastell C\u0103ciul\u0103te\u0219ti (e69e6cb2-cded-446c-b159-daec78476f43)", "dateprops": [], "properties": {}, "geometry": {"type": "Point", "coordinates": [23.949167, 43.938056], "crs": "4326"}}, {"type": "Feature", "id": "http://lod.squirrel.link/data/limes/daicus/e811fe5a-92d2-43a0-a572-51bc5942e242", "name": "Kastell Aizis (e811fe5a-92d2-43a0-a572-51bc5942e242)", "dateprops": [], "properties": {}, "geometry": {"type": "Point", "coordinates": [21.847883, 45.486656], "crs": "4326"}}, {"type": "Feature", "id": "http://lod.squirrel.link/data/limes/daicus/ed79872f-dcb1-48d0-a008-5a3c65432a67", "name": "Kastell Aradul Nou (ed79872f-dcb1-48d0-a008-5a3c65432a67)", "dateprops": [], "properties": {}, "geometry": {"type": "Point", "coordinates": [21.315097, 46.146819], "crs": "4326"}}, {"type": "Feature", "id": "http://lod.squirrel.link/data/limes/daicus/f35f2d3f-8925-4139-9e9b-cf07ee5aaecb", "name": "Kastell Borosneu Mare (f35f2d3f-8925-4139-9e9b-cf07ee5aaecb)", "dateprops": [], "properties": {}, "geometry": {"type": "Point", "coordinates": [26.016986, 45.843861], "crs": "4326"}}, {"type": "Feature", "id": "http://lod.squirrel.link/data/limes/daicus/0ab5e10e-4fb0-4854-835b-389043840ee0", "name": "Kastell Li\u015fteava (0ab5e10e-4fb0-4854-835b-389043840ee0)", "dateprops": [], "properties": {}, "geometry": {"type": "Point", "coordinates": [23.92, 43.834167], "crs": "4326"}}, {"type": "Feature", "id": "http://lod.squirrel.link/data/limes/daicus/0fe1d8dd-b425-4d55-ae80-2cd8d5d61ace", "name": "Kastell C\u0103\u015feiu (Samum) (0fe1d8dd-b425-4d55-ae80-2cd8d5d61ace)", "dateprops": [], "properties": {}, "geometry": {"type": "Point", "coordinates": [23.837639, 47.186222], "crs": "4326"}}, {"type": "Feature", "id": "http://lod.squirrel.link/data/limes/daicus/0203af0b-bc52-4f9f-b490-b2bc3fe431fc", "name": "Kastell Cigm\u0103u  (0203af0b-bc52-4f9f-b490-b2bc3fe431fc)", "dateprops": [], "properties": {}, "geometry": {"type": "Point", "coordinates": [23.164364, 45.897053], "crs": "4326"}}, {"type": "Feature", "id": "http://lod.squirrel.link/data/limes/daicus/096a9a4c-020f-4ce0-a4a6-993d50d08fea", "name": "Kastell Cop\u0103ceni (Praetorium I) (096a9a4c-020f-4ce0-a4a6-993d50d08fea)", "dateprops": [], "properties": {}, "geometry": {"type": "Point", "coordinates": [24.309861, 45.395903], "crs": "4326"}}, {"type": "Feature", "id": "http://lod.squirrel.link/data/limes/daicus/1d8f65a8-c30b-40f1-9676-2e1145691ac3", "name": "Kastell Abrud (Alburnus Maior) (1d8f65a8-c30b-40f1-9676-2e1145691ac3)", "dateprops": [], "properties": {}, "geometry": {"type": "Point", "coordinates": [23.068611, 46.272222], "crs": "4326"}}, {"type": "Feature", "id": "http://lod.squirrel.link/data/limes/daicus/1e218e82-f264-4241-a8e0-5efd9a1ec8a4", "name": "Kastell Islaz-Razovica (1e218e82-f264-4241-a8e0-5efd9a1ec8a4)", "dateprops": [], "properties": {}, "geometry": {"type": "Point", "coordinates": [24.870833, 43.751667], "crs": "4326"}}, {"type": "Feature", "id": "http://lod.squirrel.link/data/limes/daicus/1795d125-e071-4153-b07e-e147bb19ad65", "name": "Kastell Comal\u0103u (1795d125-e071-4153-b07e-e147bb19ad65)", "dateprops": [], "properties": {}, "geometry": {"type": "Point", "coordinates": [25.900222, 45.844172], "crs": "4326"}}, {"type": "Feature", "id": "http://lod.squirrel.link/data/limes/daicus/3af3a2c4-8038-482d-9fa9-a0e90584ef6d", "name": "Kastell Bulci (3af3a2c4-8038-482d-9fa9-a0e90584ef6d)", "dateprops": [], "properties": {}, "geometry": {"type": "Point", "coordinates": [22.112283, 46.006539], "crs": "4326"}}, {"type": "Feature", "id": "http://lod.squirrel.link/data/limes/daicus/3b51185a-d7ca-4c22-b85d-a021b3727c4d", "name": "Kastell Br\u00e2ncovene\u015fti (3b51185a-d7ca-4c22-b85d-a021b3727c4d)", "dateprops": [], "properties": {}, "geometry": {"type": "Point", "coordinates": [24.766042, 46.861514], "crs": "4326"}}, {"type": "Feature", "id": "http://lod.squirrel.link/data/limes/daicus/34d0d768-2d4d-42b3-82ae-e29bad5c1eed", "name": "Kastell Gresia (34d0d768-2d4d-42b3-82ae-e29bad5c1eed)", "dateprops": [], "properties": {}, "geometry": {"type": "Point", "coordinates": [24.917722, 44.172583], "crs": "4326"}}, {"type": "Feature", "id": "http://lod.squirrel.link/data/limes/daicus/3680e065-f377-4f4d-a9d6-84523dcb1727", "name": "Kastell Bre\u021bcu  (3680e065-f377-4f4d-a9d6-84523dcb1727)", "dateprops": [], "properties": {}, "geometry": {"type": "Point", "coordinates": [26.312836, 46.050994], "crs": "4326"}}, {"type": "Feature", "id": "http://lod.squirrel.link/data/limes/daicus/4dbfae9e-f0f7-4dab-94ca-9bca2cec83aa", "name": "Kastell Fl\u0103m\u0103nda (Poiana) (4dbfae9e-f0f7-4dab-94ca-9bca2cec83aa)", "dateprops": [], "properties": {}, "geometry": {"type": "Point", "coordinates": [24.983333, 43.7345], "crs": "4326"}}, {"type": "Feature", "id": "http://lod.squirrel.link/data/limes/daicus/4df4edbc-facd-42bd-b05e-076f94ae693b", "name": "Kastell IIone\u0219tii Govorii (Pons Aluti) (4df4edbc-facd-42bd-b05e-076f94ae693b)", "dateprops": [], "properties": {}, "geometry": {"type": "Point", "coordinates": [24.236111, 44.883333], "crs": "4326"}}, {"type": "Feature", "id": "http://lod.squirrel.link/data/limes/daicus/4e013c45-7445-4ea6-8356-2c9cc9e7ac6e", "name": "Kastell Gil\u0103u (4e013c45-7445-4ea6-8356-2c9cc9e7ac6e)", "dateprops": [], "properties": {}, "geometry": {"type": "Point", "coordinates": [23.391764, 46.754058], "crs": "4326"}}, {"type": "Feature", "id": "http://lod.squirrel.link/data/limes/daicus/4198c975-e14a-4fb3-9b2e-7be9e145ecac", "name": "Kastell Jiblea (4198c975-e14a-4fb3-9b2e-7be9e145ecac)", "dateprops": [], "properties": {}, "geometry": {"type": "Point", "coordinates": [24.360556, 45.231944], "crs": "4326"}}, {"type": "Feature", "id": "http://lod.squirrel.link/data/limes/daicus/5b90b8d5-ba6e-4789-94d2-db823824acbf", "name": "Kastell C\u0103ineni (Pons Vetus ?) (5b90b8d5-ba6e-4789-94d2-db823824acbf)", "dateprops": [], "properties": {}, "geometry": {"type": "Point", "coordinates": [24.308611, 45.495], "crs": "4326"}}, {"type": "Feature", "id": "http://lod.squirrel.link/data/limes/daicus/5d0fac8e-53ae-4ae7-92a2-dd419eee0dce", "name": "Kastell Hoghiz (5d0fac8e-53ae-4ae7-92a2-dd419eee0dce)", "dateprops": [], "properties": {}, "geometry": {"type": "Point", "coordinates": [25.300011, 45.983367], "crs": "4326"}}, {"type": "Feature", "id": "http://lod.squirrel.link/data/limes/daicus/5e6a65c9-32dd-4581-b6ab-a95afdc4d061", "name": "Kastell C\u00e2mpulung Muscel I (5e6a65c9-32dd-4581-b6ab-a95afdc4d061)", "dateprops": [], "properties": {}, "geometry": {"type": "Point", "coordinates": [25.012472, 45.22075], "crs": "4326"}}, {"type": "Feature", "id": "http://lod.squirrel.link/data/limes/daicus/5ea0f057-026f-4556-97f5-3e0e3a9471c3", "name": "Kastell Gherla (5ea0f057-026f-4556-97f5-3e0e3a9471c3)", "dateprops": [], "properties": {}, "geometry": {"type": "Point", "coordinates": [23.899911, 47.019833], "crs": "4326"}}, {"type": "Feature", "id": "http://lod.squirrel.link/data/limes/daicus/50320dbe-929c-40e3-aebd-f8f257d6472a", "name": "Kastell Castranova (50320dbe-929c-40e3-aebd-f8f257d6472a)", "dateprops": [], "properties": {}, "geometry": {"type": "Point", "coordinates": [24.016667, 44.116667], "crs": "4326"}}, {"type": "Feature", "id": "http://lod.squirrel.link/data/limes/daicus/6c5d4f2f-8a7b-4ad5-8672-f4ecc7e80ff0", "name": "Kastell B\u0103neasa I (6c5d4f2f-8a7b-4ad5-8672-f4ecc7e80ff0)", "dateprops": [], "properties": {}, "geometry": {"type": "Point", "coordinates": [24.96525, 43.937806], "crs": "4326"}}, {"type": "Feature", "id": "http://lod.squirrel.link/data/limes/daicus/64ae9ea8-9dca-4e22-b32b-c2f95fd80b44", "name": "Kastell F\u00e2lfani (64ae9ea8-9dca-4e22-b32b-c2f95fd80b44)", "dateprops": [], "properties": {}, "geometry": {"type": "Point", "coordinates": [24.785111, 44.603278], "crs": "4326"}}, {"type": "Feature", "id": "http://lod.squirrel.link/data/limes/daicus/6689fc0e-01ff-4dbc-b3ed-49e35a3d397a", "name": "Kastell Bologa (Resculum) (6689fc0e-01ff-4dbc-b3ed-49e35a3d397a)", "dateprops": [], "properties": {}, "geometry": {"type": "Point", "coordinates": [22.884611, 46.885694], "crs": "4326"}}, {"type": "Feature", "id": "http://lod.squirrel.link/data/limes/daicus/7aa137c0-3763-4bd3-a1ec-bd8a88b3d786", "name": "Kastell C\u0103lug\u0103reni (7aa137c0-3763-4bd3-a1ec-bd8a88b3d786)", "dateprops": [], "properties": {}, "geometry": {"type": "Point", "coordinates": [24.877311, 46.628978], "crs": "4326"}}, {"type": "Feature", "id": "http://lod.squirrel.link/data/limes/daicus/7b05b48b-cd48-4c66-916e-6ea581179843", "name": "Kastell Islaz-Verdea (7b05b48b-cd48-4c66-916e-6ea581179843)", "dateprops": [], "properties": {}, "geometry": {"type": "Point", "coordinates": [24.762222, 43.710278], "crs": "4326"}}, {"type": "Feature", "id": "http://lod.squirrel.link/data/limes/daicus/7c3bf06c-8f79-457e-b56f-77da98c7a69b", "name": "Kastell B\u0103neasa II (7c3bf06c-8f79-457e-b56f-77da98c7a69b)", "dateprops": [], "properties": {}, "geometry": {"type": "Point", "coordinates": [24.961889, 43.935889], "crs": "4326"}}, {"type": "Feature", "id": "http://lod.squirrel.link/data/limes/daicus/7cb289bf-4a31-467d-9c9d-4271a8dc55c9", "name": "Kastell Boi\u0163a (Caput Stenarum)  (7cb289bf-4a31-467d-9c9d-4271a8dc55c9)", "dateprops": [], "properties": {}, "geometry": {"type": "Point", "coordinates": [24.266011, 45.635769], "crs": "4326"}}, {"type": "Feature", "id": "http://lod.squirrel.link/data/limes/daicus/7e6b0abd-392e-48da-a973-52db57e43459", "name": "Kastell Berzovia  (7e6b0abd-392e-48da-a973-52db57e43459)", "dateprops": [], "properties": {}, "geometry": {"type": "Point", "coordinates": [21.629394, 45.426539], "crs": "4326"}}, {"type": "Feature", "id": "http://lod.squirrel.link/data/limes/daicus/70d51242-571e-43ce-bd01-3bffca8cb4be", "name": "Kastell Feldioara (70d51242-571e-43ce-bd01-3bffca8cb4be)", "dateprops": [], "properties": {}, "geometry": {"type": "Point", "coordinates": [25.591561, 45.816419], "crs": "4326"}}, {"type": "Feature", "id": "http://lod.squirrel.link/data/limes/daicus/7422f9df-da23-450f-8eac-db2d8dfca42e", "name": "Kastell Livezile (7422f9df-da23-450f-8eac-db2d8dfca42e)", "dateprops": [], "properties": {}, "geometry": {"type": "Point", "coordinates": [24.57075, 47.186869], "crs": "4326"}}, {"type": "Feature", "id": "http://lod.squirrel.link/data/limes/daicus/8c5f1f84-f11a-48f0-8e9a-c629c7d346e2", "name": "Kastell C\u00e2mpulung Muscel II (8c5f1f84-f11a-48f0-8e9a-c629c7d346e2)", "dateprops": [], "properties": {}, "geometry": {"type": "Point", "coordinates": [25.012694, 45.221], "crs": "4326"}}, {"type": "Feature", "id": "http://lod.squirrel.link/data/limes/daicus/815f5c63-8478-4aac-bafb-11eaafa9a923", "name": "Kastell Dupljaja (815f5c63-8478-4aac-bafb-11eaafa9a923)", "dateprops": [], "properties": {}, "geometry": {"type": "Point", "coordinates": [21.275078, 44.927103], "crs": "4326"}}, {"type": "Feature", "id": "http://lod.squirrel.link/data/limes/daicus/86dae60a-c827-480d-bb38-04a480b9ea01", "name": "Kastell Cenad (86dae60a-c827-480d-bb38-04a480b9ea01)", "dateprops": [], "properties": {}, "geometry": {"type": "Point", "coordinates": [20.585819, 46.138106], "crs": "4326"}}, {"type": "Feature", "id": "http://lod.squirrel.link/data/limes/daicus/9ac48ee9-00b6-46ab-a597-b6aa5f2d784a", "name": "Kastell Bivolari (Arutela) (9ac48ee9-00b6-46ab-a597-b6aa5f2d784a)", "dateprops": [], "properties": {}, "geometry": {"type": "Point", "coordinates": [24.312389, 45.309667], "crs": "4326"}}, {"type": "Feature", "id": "http://lod.squirrel.link/data/limes/daicus/9b62118c-9936-42f2-a6e7-49f649c937f2", "name": "Kastell Bumbe\u015fti (9b62118c-9936-42f2-a6e7-49f649c937f2)", "dateprops": [], "properties": {}, "geometry": {"type": "Point", "coordinates": [23.4, 45.166667], "crs": "4326"}}, {"type": "Feature", "id": "http://lod.squirrel.link/data/limes/daicus/9ba7d74c-175e-48c8-9403-dbbdd650ed22", "name": "Kastell Criste\u015fti (9ba7d74c-175e-48c8-9403-dbbdd650ed22)", "dateprops": [], "properties": {}, "geometry": {"type": "Point", "coordinates": [24.476111, 46.510556], "crs": "4326"}}], "numberMatched": 49, "numberReturned": 49, "bbox": [20.585819, 43.710278, 26.312836, 47.210528], "crs": "http://www.opengis.net/def/crs/EPSG/0/4326"}