{"type": "FeatureCollection", "features": [{"geometry": {"type": "Point", "coordinates": [-4.30902147293, 51.8554649353]}, "type": "Feature", "properties": {"city": "Carmarthen", "group": 0, "name": "moridunum", "county": "Dyfed", "grid": "SN4120", "roman_name": "MVRIDVNO"}}, {"geometry": {"type": "Point", "coordinates": [-4.27231121063, 53.1331634521]}, "type": "Feature", "properties": {"city": "Caernarfon", "group": 0, "name": "segontium", "county": "Gwynedd", "grid": "SH4862", "roman_name": "SEGONTIO"}}, {"geometry": {"type": "Point", "coordinates": [-4.08223104477, 51.6618423462]}, "type": "Feature", "properties": {"city": "Loughor", "group": 0, "name": "leucarum", "county": "West Glamorgan", "grid": "SS5698", "roman_name": "LEVCARO"}}, {"geometry": {"type": "Point", "coordinates": [-3.82174921036, 51.6571807861]}, "type": "Feature", "properties": {"city": "Neath", "group": 0, "name": "nidum", "county": "West Glamorgan", "grid": "SS7497", "roman_name": "NIDO"}}, {"geometry": {"type": "Point", "coordinates": [-3.8421330452, 53.2125244141]}, "type": "Feature", "properties": {"city": "Caerhun", "group": 0, "name": "canovium", "county": "Gwynedd", "grid": "SH7770", "roman_name": "CONOVIO"}}, {"geometry": {"type": "Point", "coordinates": [-3.5989613533, 51.4895591736]}, "type": "Feature", "properties": {"city": "nr. Bridgend", "group": 0, "name": "bomium", "county": "Mid Glamorgan?", "grid": "SS8978", "roman_name": "BOMIO"}}, {"geometry": {"type": "Point", "coordinates": [-3.5300257206, 50.717010498]}, "type": "Feature", "properties": {"city": "Exeter", "group": 0, "name": "isca_dumnoniorum", "county": "Devon", "grid": "SX9292", "roman_name": "ISCA DVMNONIORVM"}}, {"geometry": {"type": "Point", "coordinates": [-3.43911933899, 53.2540397644]}, "type": "Feature", "properties": {"city": "St. Asaph", "group": 0, "name": "st_asaph", "county": "Clwyd?", "grid": "SJ0474", "roman_name": "VARIS"}}, {"geometry": {"type": "Point", "coordinates": [-3.4153277874, 54.3420944214]}, "type": "Feature", "properties": {"city": "Ravenglass", "group": 0, "name": "glannoventa", "county": "Cumbria", "grid": "SD0895", "roman_name": "CLANOVENTA"}}, {"geometry": {"type": "Point", "coordinates": [-3.16378378868, 50.8021850586]}, "type": "Feature", "properties": {"city": "Honiton", "group": 0, "name": "honiton", "county": "Devon?", "grid": "ST1801", "roman_name": "MVRIDVNVM"}}, {"geometry": {"type": "Point", "coordinates": [-3.23707509041, 55.063117981]}, "type": "Feature", "properties": {"city": "Birrens", "group": 0, "name": "blatobulgium", "county": "Dumfries and Galloway", "grid": "NY2175", "roman_name": "BLATOBVLGIVM"}}, {"geometry": {"type": "Point", "coordinates": [-3.03020167351, 51.8196640015]}, "type": "Feature", "properties": {"city": "Abergavenny", "group": 0, "name": "gobannium", "county": "Gwent", "grid": "SO2914", "roman_name": "GOBANNIO"}}, {"geometry": {"type": "Point", "coordinates": [-2.9675552845, 51.604385376]}, "type": "Feature", "properties": {"city": "Caerleon", "group": 0, "name": "isca_silurum", "county": "Gwent", "grid": "ST3390", "roman_name": "ISCAE"}}, {"geometry": {"type": "Point", "coordinates": [-2.97097754478, 54.4183998108]}, "type": "Feature", "properties": {"city": "Ambleside", "group": 0, "name": "galava", "county": "Cumbria", "grid": "NY3703", "roman_name": "GALAVA"}}, {"geometry": {"type": "Point", "coordinates": [-2.91160368919, 51.6947517395]}, "type": "Feature", "properties": {"city": "Usk", "group": 0, "name": "burrium", "county": "Gwent", "grid": "SO3700", "roman_name": "BVRRIO"}}, {"geometry": {"type": "Point", "coordinates": [-2.95441055298, 55.0297164917]}, "type": "Feature", "properties": {"city": "Netherby", "group": 0, "name": "castra_exploratorum", "county": "Cumbria", "grid": "NY3971", "roman_name": "CASTRA EXPLORATORVM"}}, {"geometry": {"type": "Point", "coordinates": [-2.95121979713, 54.8949279785]}, "type": "Feature", "properties": {"city": "Carlisle", "group": 0, "name": "luguvalium", "county": "Cumbria", "grid": "NY3956", "roman_name": "LVGVVALIVM"}}, {"geometry": {"type": "Point", "coordinates": [-2.89803624153, 53.1874198914]}, "type": "Feature", "properties": {"city": "Chester", "group": 0, "name": "deva", "county": "Cheshire", "grid": "SJ4066", "roman_name": "DEVA"}}, {"geometry": {"type": "Point", "coordinates": [-2.88118219376, 52.3603897095]}, "type": "Feature", "properties": {"city": "Leintwardine", "group": 0, "name": "bravonium", "county": "Hereford and Worcester", "grid": "SO4074", "roman_name": "BRAVONIO"}}, {"geometry": {"type": "Point", "coordinates": [-2.81714224815, 52.0731201172]}, "type": "Feature", "properties": {"city": "Kenchester", "group": 0, "name": "magnis", "county": "Hereford and Worcester", "grid": "SO4442", "roman_name": "MAGNIS"}}, {"geometry": {"type": "Point", "coordinates": [-2.82063770294, 53.0531196594]}, "type": "Feature", "properties": {"city": "Tilston", "group": 0, "name": "bovium", "county": "Cheshire?", "grid": "SJ4551", "roman_name": "BOVIVM"}}, {"geometry": {"type": "Point", "coordinates": [-2.77984380722, 51.6057739258]}, "type": "Feature", "properties": {"city": "Caerwent", "group": 0, "name": "venta_silurum", "county": "Gwent", "grid": "ST4690", "roman_name": "VENTA SILVRVM"}}, {"geometry": {"type": "Point", "coordinates": [-2.79212427139, 54.7342796326]}, "type": "Feature", "properties": {"city": "Old Penrith", "group": 0, "name": "voreda", "county": "Cumbria", "grid": "NY4938", "roman_name": "VOREDA"}}, {"geometry": {"type": "Point", "coordinates": [-2.75309276581, 54.3031005859]}, "type": "Feature", "properties": {"city": "Watercrook", "group": 0, "name": "alavana", "county": "Cumbria?", "grid": "SD5190", "roman_name": "ALONE"}}, {"geometry": {"type": "Point", "coordinates": [-2.71072816849, 51.8040428162]}, "type": "Feature", "properties": {"city": "Monmouth", "group": 0, "name": "blestium", "county": "Gwent?", "grid": "SO5112", "roman_name": "BLESTIO"}}, {"geometry": {"type": "Point", "coordinates": [-2.72839069366, 54.6448059082]}, "type": "Feature", "properties": {"city": "Brougham", "group": 0, "name": "brocavum", "county": "Cumbria", "grid": "NY5328", "roman_name": "BROCAVO"}}, {"geometry": {"type": "Point", "coordinates": [-2.68494462967, 52.9640808105]}, "type": "Feature", "properties": {"city": "Whitchurch", "group": 0, "name": "mediolanum", "county": "Shropshire", "grid": "SJ5441", "roman_name": "MEDIOLANVM"}}, {"geometry": {"type": "Point", "coordinates": [-2.66783642769, 52.8203277588]}, "type": "Feature", "properties": {"city": "Harcourt Park", "group": 0, "name": "rutunium", "county": "Shropshire?", "grid": "SJ5525", "roman_name": "RVTVNIVM"}}, {"geometry": {"type": "Point", "coordinates": [-2.6479549408, 51.4716873169]}, "type": "Feature", "properties": {"city": "Sea Mills", "group": 0, "name": "abona", "county": "Avon", "grid": "ST5575", "roman_name": "ABONE"}}, {"geometry": {"type": "Point", "coordinates": [-2.65071868896, 52.6675796509]}, "type": "Feature", "properties": {"city": "Wroxeter", "group": 0, "name": "viroconium", "county": "Shropshire", "grid": "SJ5608", "roman_name": "VRIOCONIVM"}}, {"geometry": {"type": "Point", "coordinates": [-2.63397192955, 53.5487098694]}, "type": "Feature", "properties": {"city": "Wigan", "group": 0, "name": "coccium", "county": "Lancashire?", "grid": "SD5806", "roman_name": "COCCIO"}}, {"geometry": {"type": "Point", "coordinates": [-2.59745311737, 54.1691436768]}, "type": "Feature", "properties": {"city": "Burrow in Lonsdale", "group": 0, "name": "calacum", "county": "Lancashire?", "grid": "SD6175", "roman_name": "CALACVM"}}, {"geometry": {"type": "Point", "coordinates": [-2.57318043709, 54.6276626587]}, "type": "Feature", "properties": {"city": "Kirby Thore", "group": 0, "name": "bravoniacum", "county": "Cumbria", "grid": "NY6326", "roman_name": "BROVONACIS"}}, {"geometry": {"type": "Point", "coordinates": [-2.54676556587, 53.8098297119]}, "type": "Feature", "properties": {"city": "Ribchester", "group": 0, "name": "bremetenacum", "county": "Lancashire", "grid": "SD6435", "roman_name": "BREMETONACI"}}, {"geometry": {"type": "Point", "coordinates": [-2.52332901955, 51.9039421082]}, "type": "Feature", "properties": {"city": "Weston under Penyard", "group": 0, "name": "ariconium", "county": "Hereford and Worcester", "grid": "SO6423", "roman_name": "ARICONIO"}}, {"geometry": {"type": "Point", "coordinates": [-2.52465319633, 53.2525787354]}, "type": "Feature", "properties": {"city": "Northwich", "group": 0, "name": "condate", "county": "Cheshire", "grid": "SJ6573", "roman_name": "CONDATE"}}, {"geometry": {"type": "Point", "coordinates": [-2.47461533546, 51.4185600281]}, "type": "Feature", "properties": {"city": "Bitton, nr Willsbridge", "group": 0, "name": "trajectus", "county": "Avon", "grid": "ST6769", "roman_name": "TRAIECTVS"}}, {"geometry": {"type": "Point", "coordinates": [-2.43908572197, 50.7082328796]}, "type": "Feature", "properties": {"city": "Dorchester", "group": 0, "name": "durnovaria", "county": "Dorset", "grid": "SY6990", "roman_name": "DVRONOVARIA"}}, {"geometry": {"type": "Point", "coordinates": [-2.41435265541, 52.6956138611]}, "type": "Feature", "properties": {"city": "Redhill", "group": 0, "name": "uxacona", "county": "Shropshire", "grid": "SJ7211", "roman_name": "VXACONA"}}, {"geometry": {"type": "Point", "coordinates": [-2.35921144485, 51.374004364]}, "type": "Feature", "properties": {"city": "Bath", "group": 0, "name": "aquae_sulis", "county": "Avon", "grid": "ST7564", "roman_name": "AQVIS SOLIS"}}, {"geometry": {"type": "Point", "coordinates": [-2.32446932793, 54.5207290649]}, "type": "Feature", "properties": {"city": "Brough Castle", "group": 0, "name": "verteris", "county": "Cumbria", "grid": "NY7914", "roman_name": "VERTERIS"}}, {"geometry": {"type": "Point", "coordinates": [-2.26762151718, 55.2758140564]}, "type": "Feature", "properties": {"city": "High Rochester", "group": 0, "name": "bremenium", "county": "Northumberland", "grid": "NY8398", "roman_name": "BREMENIVM"}}, {"geometry": {"type": "Point", "coordinates": [-2.25611662865, 53.4692115784]}, "type": "Feature", "properties": {"city": "Manchester", "group": 0, "name": "mamucium", "county": "Greater Manchester", "grid": "SJ8397", "roman_name": "MAMVCIVM"}}, {"geometry": {"type": "Point", "coordinates": [-2.24688506126, 51.8598823547]}, "type": "Feature", "properties": {"city": "Gloucester", "group": 0, "name": "glevum", "county": "Gloucestershire", "grid": "SO8318", "roman_name": "CLEVO"}}, {"geometry": {"type": "Point", "coordinates": [-2.14796185493, 52.6872558594]}, "type": "Feature", "properties": {"city": "Water Eaton", "group": 0, "name": "pennocrucium", "county": "Staffordshire", "grid": "SJ9010", "roman_name": "PENNOCRVCIVM"}}, {"geometry": {"type": "Point", "coordinates": [-2.07097744942, 50.8169670105]}, "type": "Feature", "properties": {"city": "Badbury", "group": 0, "name": "vindocladia", "county": "Dorset", "grid": "ST9502", "roman_name": "VINDOGLADIA"}}, {"geometry": {"type": "Point", "coordinates": [-2.04312539101, 51.4015350342]}, "type": "Feature", "properties": {"city": "Sandy Lane", "group": 0, "name": "verlucio", "county": "Wiltshire", "grid": "ST9767", "roman_name": "VERLVCIONE"}}, {"geometry": {"type": "Point", "coordinates": [-2.0312473774, 54.970539093]}, "type": "Feature", "properties": {"city": "Corbridge", "group": 0, "name": "corstopitum", "county": "Northumberland", "grid": "NY9864", "roman_name": "CORSTOPITVM"}}, {"geometry": {"type": "Point", "coordinates": [-2.01544809341, 54.512172699]}, "type": "Feature", "properties": {"city": "Bowes", "group": 0, "name": "lavatris", "county": "Durham", "grid": "NY9913", "roman_name": "LEVATRIS"}}, {"geometry": {"type": "Point", "coordinates": [-1.97105383873, 51.7072753906]}, "type": "Feature", "properties": {"city": "Cirencester", "group": 0, "name": "corinium", "county": "Gloucestershire!", "grid": "SP0201", "roman_name": "CORINIVM"}}, {"geometry": {"type": "Point", "coordinates": [-1.87895548344, 53.6492118835]}, "type": "Feature", "properties": {"city": "Slack", "group": 0, "name": "cambodunum", "county": "South Yorkshire?", "grid": "SE0817", "roman_name": "CAMBODVNVM"}}, {"geometry": {"type": "Point", "coordinates": [-1.86695516109, 52.651309967]}, "type": "Feature", "properties": {"city": "Wall", "group": 0, "name": "letocetum", "county": "Staffordshire", "grid": "SK0906", "roman_name": "EOCETVM"}}, {"geometry": {"type": "Point", "coordinates": [-1.84409153461, 54.8895645142]}, "type": "Feature", "properties": {"city": "Ebchester", "group": 0, "name": "vindomora", "county": "Durham", "grid": "NZ1055", "roman_name": "VINDOMORA"}}, {"geometry": {"type": "Point", "coordinates": [-1.81437170506, 51.086643219]}, "type": "Feature", "properties": {"city": "Old Sarum", "group": 0, "name": "sorviodunum", "county": "Wiltshire", "grid": "SU1332", "roman_name": "SORBIODONI"}}, {"geometry": {"type": "Point", "coordinates": [-1.72587418556, 51.5630874634]}, "type": "Feature", "properties": {"city": "Wanborough", "group": 0, "name": "durocornovium", "county": "Wiltshire?", "grid": "SU1985", "roman_name": "DVROCORNOVIO"}}, {"geometry": {"type": "Point", "coordinates": [-1.68982243538, 54.6735649109]}, "type": "Feature", "properties": {"city": "Binchester", "group": 0, "name": "vinovium", "county": "Durham", "grid": "NZ2031", "roman_name": "VINOVIVM"}}, {"geometry": {"type": "Point", "coordinates": [-1.69796264172, 51.4191322327]}, "type": "Feature", "properties": {"city": "Mildenhall", "group": 0, "name": "cunetio", "county": "Wiltshire", "grid": "SU2169", "roman_name": "CVNETIONE"}}, {"geometry": {"type": "Point", "coordinates": [-1.66120481491, 54.3858718872]}, "type": "Feature", "properties": {"city": "Catterick", "group": 0, "name": "cataractonium", "county": "North Yorkshire", "grid": "SE2299", "roman_name": "CATARACTONIVM"}}, {"geometry": {"type": "Point", "coordinates": [-1.52790117264, 52.5605316162]}, "type": "Feature", "properties": {"city": "Mancetter", "group": 0, "name": "manduessedum", "county": "Warwickshire", "grid": "SP3296", "roman_name": "MANDVESEDVM"}}, {"geometry": {"type": "Point", "coordinates": [-1.51470577717, 51.0677986145]}, "type": "Feature", "properties": {"city": "Buckholt Farm, nr Horsebridge", "group": 0, "name": "briga", "county": "Hampshire", "grid": "SU3430", "roman_name": "BRIGE"}}, {"geometry": {"type": "Point", "coordinates": [-1.38841497898, 54.0881767273]}, "type": "Feature", "properties": {"city": "Aldborough", "group": 0, "name": "isurium", "county": "North Yorkshire", "grid": "SE4066", "roman_name": "ISVRIVM BRIGANTVM"}}, {"geometry": {"type": "Point", "coordinates": [-1.36346840858, 53.719493866]}, "type": "Feature", "properties": {"city": "Castleford", "group": 0, "name": "lagentium", "county": "South Yorkshire?", "grid": "SE4225", "roman_name": "LEGIOLIO"}}, {"geometry": {"type": "Point", "coordinates": [-1.3882676363, 50.91431427]}, "type": "Feature", "properties": {"city": "Bitterne", "group": 0, "name": "clausentum", "county": "Hampshire?", "grid": "SU4313", "roman_name": "CLAVSENTVM"}}, {"geometry": {"type": "Point", "coordinates": [-1.35292363167, 51.4087486267]}, "type": "Feature", "properties": {"city": "Speen, nr Newbury", "group": 0, "name": "spinae", "county": "Berkshire", "grid": "SU4568", "roman_name": "SPINAE"}}, {"geometry": {"type": "Point", "coordinates": [-1.30776250362, 52.4875221252]}, "type": "Feature", "properties": {"city": "High Cross", "group": 0, "name": "venonis", "county": "Leicestershire", "grid": "SP4788", "roman_name": "VENONIS"}}, {"geometry": {"type": "Point", "coordinates": [-1.26988983154, 53.8717803955]}, "type": "Feature", "properties": {"city": "Tadcaster", "group": 0, "name": "calcaria", "county": "North Yorkshire", "grid": "SE4842", "roman_name": "CALCARIA"}}, {"geometry": {"type": "Point", "coordinates": [-1.31502020359, 51.0578041077]}, "type": "Feature", "properties": {"city": "Winchester", "group": 0, "name": "venta_belgarum", "county": "Hampshire", "grid": "SU4829", "roman_name": "VENTA BELGARVM"}}, {"geometry": {"type": "Point", "coordinates": [-1.22081792355, 52.4060630798]}, "type": "Feature", "properties": {"city": "Cave's Inn", "group": 0, "name": "tripontium", "county": "Warwickshire", "grid": "SP5379", "roman_name": "TRIPONTIO"}}, {"geometry": {"type": "Point", "coordinates": [-1.14018416405, 53.5203361511]}, "type": "Feature", "properties": {"city": "Doncaster", "group": 0, "name": "danum", "county": "South Yorkshire", "grid": "SE5703", "roman_name": "DANO"}}, {"geometry": {"type": "Point", "coordinates": [-1.14296388626, 52.6303024292]}, "type": "Feature", "properties": {"city": "Leicester", "group": 0, "name": "ratae", "county": "Leicestershire", "grid": "SK5804", "roman_name": "RATIS"}}, {"geometry": {"type": "Point", "coordinates": [-1.08542180061, 53.9604110718]}, "type": "Feature", "properties": {"city": "York", "group": 0, "name": "eburacum", "county": "North Yorkshire", "grid": "SE6052", "roman_name": "EBVRACVM"}}, {"geometry": {"type": "Point", "coordinates": [-1.10595083237, 52.2703819275]}, "type": "Feature", "properties": {"city": "Whilton Lodge", "group": 0, "name": "bannaventa", "county": "Northhamptonshire", "grid": "SP6164", "roman_name": "BANNAVENTA"}}, {"geometry": {"type": "Point", "coordinates": [-1.05022513866, 52.8184051514]}, "type": "Feature", "properties": {"city": "Willoughby", "group": 0, "name": "vernemetum", "county": "Nottinghamshire", "grid": "SK6425", "roman_name": "VERNEMETO"}}, {"geometry": {"type": "Point", "coordinates": [-1.08083617687, 51.3529701233]}, "type": "Feature", "properties": {"city": "Silchester", "group": 0, "name": "calleva", "county": "Hampshire", "grid": "SU6462", "roman_name": "CALLEVA ATREBATVM"}}, {"geometry": {"type": "Point", "coordinates": [-0.991984009743, 52.1255874634]}, "type": "Feature", "properties": {"city": "Towcester", "group": 0, "name": "lactodurum", "county": "Northamptonshire", "grid": "SP6948", "roman_name": "LACTODORVM"}}, {"geometry": {"type": "Point", "coordinates": [-0.957750856876, 52.9614830017]}, "type": "Feature", "properties": {"city": "Castle Hill", "group": 0, "name": "margidunum", "county": "Nottinghamshire", "grid": "SK7041", "roman_name": "MARGIDVNO"}}, {"geometry": {"type": "Point", "coordinates": [-0.941592872143, 51.1629371643]}, "type": "Feature", "properties": {"city": "Neatham", "group": 0, "name": "neatham", "county": "Hampshire?", "grid": "SU7441", "roman_name": "VINDOMI"}}, {"geometry": {"type": "Point", "coordinates": [-0.881226420403, 53.0417098999]}, "type": "Feature", "properties": {"city": "East Stoke", "group": 0, "name": "ad_pontem", "county": "Nottinghamshire", "grid": "SK7550", "roman_name": "AD PONTEM"}}, {"geometry": {"type": "Point", "coordinates": [-0.790923476219, 54.1286048889]}, "type": "Feature", "properties": {"city": "Malton", "group": 0, "name": "derventio_brigantum", "county": "North Yorkshire?", "grid": "SE7971", "roman_name": "DERVENTIO"}}, {"geometry": {"type": "Point", "coordinates": [-0.768622279167, 53.3282852173]}, "type": "Feature", "properties": {"city": "Littleborough", "group": 0, "name": "segelocum", "county": "Nottinghamshire", "grid": "SK8282", "roman_name": "SEGELOCI"}}, {"geometry": {"type": "Point", "coordinates": [-0.734930455685, 53.9572296143]}, "type": "Feature", "properties": {"city": "nr. Millington", "group": 0, "name": "delgovicia", "county": "Humberside?", "grid": "SE8352", "roman_name": "DELGOVICIA"}}, {"geometry": {"type": "Point", "coordinates": [-0.759860754013, 53.1124267578]}, "type": "Feature", "properties": {"city": "Brough", "group": 0, "name": "crococalana", "county": "Nottinghamshire", "grid": "SK8358", "roman_name": "CROCOCALANA"}}, {"geometry": {"type": "Point", "coordinates": [-0.778755664825, 50.8285827637]}, "type": "Feature", "properties": {"city": "Chichester", "group": 0, "name": "noviomagus_regnorum", "county": "Sussex", "grid": "SU8604", "roman_name": "REGNO"}}, {"geometry": {"type": "Point", "coordinates": [-0.718339443207, 51.9880447388]}, "type": "Feature", "properties": {"city": "Dropshort", "group": 0, "name": "magiovinium", "county": "Buckinghamshire", "grid": "SP8833", "roman_name": "MAGIOVINTVM"}}, {"geometry": {"type": "Point", "coordinates": [-0.546802282333, 53.2268943787]}, "type": "Feature", "properties": {"city": "Lincoln", "group": 0, "name": "lindum", "county": "Lincolnshire", "grid": "SK9771", "roman_name": "LINDO"}}, {"geometry": {"type": "Point", "coordinates": [-0.540368258953, 52.9750747681]}, "type": "Feature", "properties": {"city": "Ancaster", "group": 0, "name": "causennae", "county": "Lincolnshire?", "grid": "SK9843", "roman_name": "CAVSENNIS"}}, {"geometry": {"type": "Point", "coordinates": [-0.532585859299, 51.8779716492]}, "type": "Feature", "properties": {"city": "Dunstable", "group": 0, "name": "durocobrivis", "county": "Bedfordshire", "grid": "TL0121", "roman_name": "DVROCOBRIVIS"}}, {"geometry": {"type": "Point", "coordinates": [-0.518274664879, 51.4281425476]}, "type": "Feature", "properties": {"city": "Staines", "group": 0, "name": "pontes", "county": "Surrey", "grid": "TQ0371", "roman_name": "PONTIBVS"}}, {"geometry": {"type": "Point", "coordinates": [-0.348009437323, 52.549949646]}, "type": "Feature", "properties": {"city": "Water Newton", "group": 0, "name": "durobrivae_catuvellorum", "county": "Cambridgeshire", "grid": "TL1296", "roman_name": "DVROBRIVAS"}}, {"geometry": {"type": "Point", "coordinates": [-0.36287561059, 51.7498321533]}, "type": "Feature", "properties": {"city": "St. Alban's", "group": 0, "name": "verulamium", "county": "Hertfordshire", "grid": "TL1307", "roman_name": "VEROLAMIVM"}}, {"geometry": {"type": "Point", "coordinates": [-0.309321522713, 51.6321640015]}, "type": "Feature", "properties": {"city": "Brockley Hill", "group": 0, "name": "sulloniacis", "county": "Greater London", "grid": "TQ1794", "roman_name": "SVLLONIACIS"}}, {"geometry": {"type": "Point", "coordinates": [-0.195888713002, 54.085193634]}, "type": "Feature", "properties": {"city": "Bridlington", "group": 0, "name": "praesidium", "county": "Humberside?", "grid": "TA1867", "roman_name": "PRAETORIO"}}, {"geometry": {"type": "Point", "coordinates": [-0.0975758954883, 51.5120048523]}, "type": "Feature", "properties": {"city": "London", "group": 0, "name": "londinium", "county": "Greater London", "grid": "TQ3281", "roman_name": "LONDINIVM"}}, {"geometry": {"type": "Point", "coordinates": [0.107771031559, 52.209980011]}, "type": "Feature", "properties": {"city": "Cambridge", "group": 0, "name": "duroliponte", "county": "Cambridgeshire", "grid": "TL4459", "roman_name": "DVROLIPONTE"}}, {"geometry": {"type": "Point", "coordinates": [0.17306663096, 51.4443511963]}, "type": "Feature", "properties": {"city": "Crayford", "group": 0, "name": "noviomagus_cantiacorum", "county": "Greater London", "grid": "TQ5174? ", "roman_name": "NOVIOMAGVS"}}, {"geometry": {"type": "Point", "coordinates": [0.238512769341, 51.6050071716]}, "type": "Feature", "properties": {"city": "Nr. Romford", "group": 0, "name": "durolitum", "county": "Greater London?", "grid": "TQ5592", "roman_name": "DVROLITO"}}, {"geometry": {"type": "Point", "coordinates": [0.315954059362, 51.4236183167]}, "type": "Feature", "properties": {"city": "Springhead", "group": 0, "name": "vagniacis", "county": "Kent?", "grid": "TQ6172", "roman_name": "VAGNIACIS"}}, {"geometry": {"type": "Point", "coordinates": [0.461747974157, 51.7264480591]}, "type": "Feature", "properties": {"city": "Chelmsford", "group": 0, "name": "caesaromagus", "county": "Essex", "grid": "TL7006", "roman_name": "CAESAROMAGO"}}, {"geometry": {"type": "Point", "coordinates": [0.500807344913, 51.3838386536]}, "type": "Feature", "properties": {"city": "Rochester", "group": 0, "name": "durobrivae_cantiacorum", "county": "Kent", "grid": "TQ7468", "roman_name": "DVROBRIVAE"}}, {"geometry": {"type": "Point", "coordinates": [0.625920712948, 52.307510376]}, "type": "Feature", "properties": {"city": "Lackford", "group": 0, "name": "camboritum", "county": "Suffolk?", "grid": "TL7971", "roman_name": "CAMBORICO"}}, {"geometry": {"type": "Point", "coordinates": [0.699611544609, 51.8291549683]}, "type": "Feature", "properties": {"city": "Kelvedon", "group": 0, "name": "canonium", "county": "Essex", "grid": "TL8618", "roman_name": "CANONIO"}}, {"geometry": {"type": "Point", "coordinates": [0.892068684101, 51.8875389099]}, "type": "Feature", "properties": {"city": "Colchester", "group": 0, "name": "camulodunum", "county": "Essex", "grid": "TL9925", "roman_name": "CAMOLODVO"}}, {"geometry": {"type": "Point", "coordinates": [0.855750381947, 51.3127593994]}, "type": "Feature", "properties": {"city": "Ospringe", "group": 0, "name": "durolevum", "county": "Kent?", "grid": "TQ9961", "roman_name": "DVROLEVVM"}}, {"geometry": {"type": "Point", "coordinates": [0.985101222992, 51.9751663208]}, "type": "Feature", "properties": {"city": "nr. Stratford St. Mary", "group": 0, "name": "ad_ansam", "county": "Suffolk?", "grid": "TM0535", "roman_name": "AD ANSAM"}}, {"geometry": {"type": "Point", "coordinates": [1.08282995224, 52.1255569458]}, "type": "Feature", "properties": {"city": "Baylham House", "group": 0, "name": "combretovium", "county": "Suffolk", "grid": "TM1152", "roman_name": "COMBRETONIO"}}, {"geometry": {"type": "Point", "coordinates": [1.01185655594, 51.0659561157]}, "type": "Feature", "properties": {"city": "Lympne", "group": 0, "name": "portus_lemanis", "county": "Kent", "grid": "TR1134", "roman_name": "PORTVS LEMANIS"}}, {"geometry": {"type": "Point", "coordinates": [1.14305830002, 52.3578338623]}, "type": "Feature", "properties": {"city": "Scole", "group": 0, "name": "scole", "county": "Norfolk?", "grid": "TM1478", "roman_name": "Scole</A>VILLA FAVSTINI"}}, {"geometry": {"type": "Point", "coordinates": [1.06829857826, 51.2713928223]}, "type": "Feature", "properties": {"city": "Canterbury", "group": 0, "name": "durovernum", "county": "Kent", "grid": "TR1457", "roman_name": "DVROVERNVM"}}, {"geometry": {"type": "Point", "coordinates": [1.29173159599, 52.5786514282]}, "type": "Feature", "properties": {"city": "Caistor St. Edmund", "group": 0, "name": "venta_icenorum", "county": "Norfolk", "grid": "TG2303", "roman_name": "VENTA INECORVM"}}, {"geometry": {"type": "Point", "coordinates": [1.32787144184, 51.2912826538]}, "type": "Feature", "properties": {"city": "Richborough", "group": 0, "name": "rutupiae", "county": "Kent", "grid": "TR3260", "roman_name": "RITVPIS"}}, {"geometry": {"type": "Point", "coordinates": [1.31558632851, 51.1207046509]}, "type": "Feature", "properties": {"city": "Dover", "group": 0, "name": "portus_dubris", "county": "Kent", "grid": "TR3241", "roman_name": "PORTVS DVBRIS"}}, {"geometry": {"type": "Point", "coordinates": [1.57266283035, 52.219669342]}, "type": "Feature", "properties": {"city": "nr. Saxmundham", "group": 0, "name": "saxmundham", "county": "Suffolk?", "grid": "TM4464", "roman_name": "SITOMAGO"}}, {"geometry": {"type": "Point", "coordinates": [-2.26762151718, 55.2758140564]}, "type": "Feature", "properties": {"city": "High Rochester", "group": 1, "name": "bremenium", "county": "Northumberland", "grid": "NY8398", "roman_name": "BREMENIVM"}}, {"geometry": {"type": "Point", "coordinates": [-2.0312473774, 54.970539093]}, "type": "Feature", "properties": {"city": "Corbridge", "group": 1, "name": "corstopitum", "county": "Northumberland", "grid": "NY9864", "roman_name": "CORSTOPITVM"}}, {"geometry": {"type": "Point", "coordinates": [-1.84409153461, 54.8895645142]}, "type": "Feature", "properties": {"city": "Ebchester", "group": 1, "name": "vindomora", "county": "Durham", "grid": "NZ1055", "roman_name": "VINDOMORA"}}, {"geometry": {"type": "Point", "coordinates": [-1.68982243538, 54.6735649109]}, "type": "Feature", "properties": {"city": "Binchester", "group": 1, "name": "vinovium", "county": "Durham", "grid": "NZ2031", "roman_name": "VINOVIVM"}}, {"geometry": {"type": "Point", "coordinates": [-1.66120481491, 54.3858718872]}, "type": "Feature", "properties": {"city": "Catterick", "group": 1, "name": "cataractonium", "county": "North Yorkshire", "grid": "SE2299", "roman_name": "CATARACTONIVM"}}, {"geometry": {"type": "Point", "coordinates": [-1.38841497898, 54.0881767273]}, "type": "Feature", "properties": {"city": "Aldborough", "group": 1, "name": "isurium", "county": "North Yorkshire", "grid": "SE4066", "roman_name": "ISVRIVM BRIGANTVM"}}, {"geometry": {"type": "Point", "coordinates": [-1.08542180061, 53.9604110718]}, "type": "Feature", "properties": {"city": "York", "group": 1, "name": "eburacum", "county": "North Yorkshire", "grid": "SE6052", "roman_name": "EBVRACVM"}}, {"geometry": {"type": "Point", "coordinates": [-0.790923476219, 54.1286048889]}, "type": "Feature", "properties": {"city": "Malton", "group": 1, "name": "derventio_brigantum", "county": "North Yorkshire?", "grid": "SE7971", "roman_name": "DERVENTIO"}}, {"geometry": {"type": "Point", "coordinates": [-0.734930455685, 53.9572296143]}, "type": "Feature", "properties": {"city": "nr. Millington", "group": 1, "name": "delgovicia", "county": "Humberside?", "grid": "SE8352", "roman_name": "DELGOVICIA"}}, {"geometry": {"type": "Point", "coordinates": [-0.195888713002, 54.085193634]}, "type": "Feature", "properties": {"city": "Bridlington", "group": 1, "name": "praesidium", "county": "Humberside?", "grid": "TA1867", "roman_name": "PRAETORIO"}}, {"geometry": {"type": "Point", "coordinates": [-3.23707509041, 55.063117981]}, "type": "Feature", "properties": {"city": "Birrens", "group": 2, "name": "blatobulgium", "county": "Dumfries and Galloway", "grid": "NY2175", "roman_name": "BLATOBVLGIVM"}}, {"geometry": {"type": "Point", "coordinates": [-2.95441055298, 55.0297164917]}, "type": "Feature", "properties": {"city": "Netherby", "group": 2, "name": "castra_exploratorum", "county": "Cumbria", "grid": "NY3971", "roman_name": "CASTRA EXPLORATORVM"}}, {"geometry": {"type": "Point", "coordinates": [-2.95121979713, 54.8949279785]}, "type": "Feature", "properties": {"city": "Carlisle", "group": 2, "name": "luguvalium", "county": "Cumbria", "grid": "NY3956", "roman_name": "LVGVVALIVM"}}, {"geometry": {"type": "Point", "coordinates": [-2.79212427139, 54.7342796326]}, "type": "Feature", "properties": {"city": "Old Penrith", "group": 2, "name": "voreda", "county": "Cumbria", "grid": "NY4938", "roman_name": "VOREDA"}}, {"geometry": {"type": "Point", "coordinates": [-2.57318043709, 54.6276626587]}, "type": "Feature", "properties": {"city": "Kirby Thore", "group": 2, "name": "bravoniacum", "county": "Cumbria", "grid": "NY6326", "roman_name": "BROVONACIS"}}, {"geometry": {"type": "Point", "coordinates": [-2.32446932793, 54.5207290649]}, "type": "Feature", "properties": {"city": "Brough Castle", "group": 2, "name": "verteris", "county": "Cumbria", "grid": "NY7914", "roman_name": "VERTERIS"}}, {"geometry": {"type": "Point", "coordinates": [-2.01544809341, 54.512172699]}, "type": "Feature", "properties": {"city": "Bowes", "group": 2, "name": "lavatris", "county": "Durham", "grid": "NY9913", "roman_name": "LAVATRIS"}}, {"geometry": {"type": "Point", "coordinates": [-1.66120481491, 54.3858718872]}, "type": "Feature", "properties": {"city": "Catterick", "group": 2, "name": "cataractonium", "county": "North Yorkshire", "grid": "SE2299", "roman_name": "CATARACTONE"}}, {"geometry": {"type": "Point", "coordinates": [-1.38841497898, 54.0881767273]}, "type": "Feature", "properties": {"city": "Aldborough", "group": 2, "name": "isurium", "county": "North Yorkshire", "grid": "SE4066", "roman_name": "ISVRIVM"}}, {"geometry": {"type": "Point", "coordinates": [-1.08542180061, 53.9604110718]}, "type": "Feature", "properties": {"city": "York", "group": 2, "name": "eburacum", "county": "North Yorkshire", "grid": "SE6052", "roman_name": "EBVRACVM"}}, {"geometry": {"type": "Point", "coordinates": [-1.26988983154, 53.8717803955]}, "type": "Feature", "properties": {"city": "Tadcaster", "group": 2, "name": "calcaria", "county": "North Yorkshire", "grid": "SE4842", "roman_name": "CALCARIA"}}, {"geometry": {"type": "Point", "coordinates": [-1.87895548344, 53.6492118835]}, "type": "Feature", "properties": {"city": "Slack", "group": 2, "name": "cambodunum", "county": "South Yorkshire?", "grid": "SE0817", "roman_name": "CAMBODVNVM"}}, {"geometry": {"type": "Point", "coordinates": [-2.25611662865, 53.4692115784]}, "type": "Feature", "properties": {"city": "Manchester", "group": 2, "name": "mamucium", "county": "Greater Manchester", "grid": "SJ8397", "roman_name": "MAMVCIVM"}}, {"geometry": {"type": "Point", "coordinates": [-2.52465319633, 53.2525787354]}, "type": "Feature", "properties": {"city": "Northwich", "group": 2, "name": "condate", "county": "Cheshire", "grid": "SJ6573", "roman_name": "CONDATE"}}, {"geometry": {"type": "Point", "coordinates": [-2.89803624153, 53.1874198914]}, "type": "Feature", "properties": {"city": "Chester", "group": 2, "name": "deva", "county": "Cheshire", "grid": "SJ4066", "roman_name": "DEVA"}}, {"geometry": {"type": "Point", "coordinates": [-2.82063770294, 53.0531196594]}, "type": "Feature", "properties": {"city": "Tilston", "group": 2, "name": "bovium", "county": "Cheshire?", "grid": "SJ4551", "roman_name": "BOVIVM"}}, {"geometry": {"type": "Point", "coordinates": [-2.68494462967, 52.9640808105]}, "type": "Feature", "properties": {"city": "Whitchurch", "group": 2, "name": "mediolanum", "county": "Shropshire", "grid": "SJ5441", "roman_name": "MEDIOLANVM"}}, {"geometry": {"type": "Point", "coordinates": [-2.66783642769, 52.8203277588]}, "type": "Feature", "properties": {"city": "Harcourt Park", "group": 2, "name": "rutunium", "county": "Shropshire?", "grid": "SJ5525", "roman_name": "RVTVNIVM"}}, {"geometry": {"type": "Point", "coordinates": [-2.65071868896, 52.6675796509]}, "type": "Feature", "properties": {"city": "Wroxeter", "group": 2, "name": "viroconium", "county": "Shropshire", "grid": "SJ5608", "roman_name": "VRIOCONIVM"}}, {"geometry": {"type": "Point", "coordinates": [-2.41435265541, 52.6956138611]}, "type": "Feature", "properties": {"city": "Redhill", "group": 2, "name": "uxacona", "county": "Shropshire", "grid": "SJ7211", "roman_name": "VXACONA"}}, {"geometry": {"type": "Point", "coordinates": [-2.14796185493, 52.6872558594]}, "type": "Feature", "properties": {"city": "Water Eaton", "group": 2, "name": "pennocrucium", "county": "Staffordshire", "grid": "SJ9010", "roman_name": "PENNOCRVCIVM"}}, {"geometry": {"type": "Point", "coordinates": [-1.86695516109, 52.651309967]}, "type": "Feature", "properties": {"city": "Wall", "group": 2, "name": "letocetum", "county": "Staffordshire", "grid": "SK0906", "roman_name": "EOCETVM"}}, {"geometry": {"type": "Point", "coordinates": [-1.52790117264, 52.5605316162]}, "type": "Feature", "properties": {"city": "Mancetter", "group": 2, "name": "manduessedum", "county": "Warwickshire", "grid": "SP3296", "roman_name": "MANDVESEDVM"}}, {"geometry": {"type": "Point", "coordinates": [-1.30776250362, 52.4875221252]}, "type": "Feature", "properties": {"city": "High Cross", "group": 2, "name": "venonis", "county": "Leicestershire", "grid": "SP4788", "roman_name": "VENONIS"}}, {"geometry": {"type": "Point", "coordinates": [-1.10595083237, 52.2703819275]}, "type": "Feature", "properties": {"city": "Whilton Lodge", "group": 2, "name": "bannaventa", "county": "Northhamptonshire", "grid": "SP6164", "roman_name": "BANNAVENTA"}}, {"geometry": {"type": "Point", "coordinates": [-0.991984009743, 52.1255874634]}, "type": "Feature", "properties": {"city": "Towcester", "group": 2, "name": "lactodurum", "county": "Northamptonshire", "grid": "SP6948", "roman_name": "LACTODORVM"}}, {"geometry": {"type": "Point", "coordinates": [-0.718339443207, 51.9880447388]}, "type": "Feature", "properties": {"city": "Dropshort", "group": 2, "name": "magiovinium", "county": "Buckinghamshire", "grid": "SP8833", "roman_name": "MAGIOVINTVM"}}, {"geometry": {"type": "Point", "coordinates": [-0.532585859299, 51.8779716492]}, "type": "Feature", "properties": {"city": "Dunstable", "group": 2, "name": "durocobrivis", "county": "Bedfordshire", "grid": "TL0121", "roman_name": "DVROCOBRIVIS"}}, {"geometry": {"type": "Point", "coordinates": [-0.36287561059, 51.7498321533]}, "type": "Feature", "properties": {"city": "St. Alban's", "group": 2, "name": "verulamium", "county": "Hertfordshire", "grid": "TL1307", "roman_name": "VEROLAMIVM"}}, {"geometry": {"type": "Point", "coordinates": [-0.309321522713, 51.6321640015]}, "type": "Feature", "properties": {"city": "Brockley Hill", "group": 2, "name": "sulloniacis", "county": "Greater London", "grid": "TQ1794", "roman_name": "SVLLONIACIS"}}, {"geometry": {"type": "Point", "coordinates": [-0.0975758954883, 51.5120048523]}, "type": "Feature", "properties": {"city": "London", "group": 2, "name": "londinium", "county": "Greater London", "grid": "TQ3281", "roman_name": "LONDINIVM"}}, {"geometry": {"type": "Point", "coordinates": [0.17306663096, 51.4443511963]}, "type": "Feature", "properties": {"city": "Crayford", "group": 2, "name": "noviomagus_cantiacorum", "county": "Greater London", "grid": "TQ5174? ", "roman_name": "NOVIOMAGVS"}}, {"geometry": {"type": "Point", "coordinates": [0.315954059362, 51.4236183167]}, "type": "Feature", "properties": {"city": "Springhead", "group": 2, "name": "vagniacis", "county": "Kent?", "grid": "TQ6172", "roman_name": "VAGNIACIS"}}, {"geometry": {"type": "Point", "coordinates": [0.500807344913, 51.3838386536]}, "type": "Feature", "properties": {"city": "Rochester", "group": 2, "name": "durobrivae_cantiacorum", "county": "Kent", "grid": "TQ7468", "roman_name": "DVROBRIVAE"}}, {"geometry": {"type": "Point", "coordinates": [0.855750381947, 51.3127593994]}, "type": "Feature", "properties": {"city": "Ospringe", "group": 2, "name": "durolevum", "county": "Kent?", "grid": "TQ9961", "roman_name": "DVROLEVVM"}}, {"geometry": {"type": "Point", "coordinates": [1.06829857826, 51.2713928223]}, "type": "Feature", "properties": {"city": "Canterbury", "group": 2, "name": "durovernum", "county": "Kent", "grid": "TR1457", "roman_name": "DVROVERNVM"}}, {"geometry": {"type": "Point", "coordinates": [1.32787144184, 51.2912826538]}, "type": "Feature", "properties": {"city": "Richborough", "group": 2, "name": "rutupiae", "county": "Kent", "grid": "TR3260", "roman_name": "RITVPIS"}}, {"geometry": {"type": "Point", "coordinates": [-0.0975758954883, 51.5120048523]}, "type": "Feature", "properties": {"city": "London", "group": 3, "name": "londinium", "county": "Greater London", "grid": "TQ3281", "roman_name": "LONDINIVM"}}, {"geometry": {"type": "Point", "coordinates": [0.500807344913, 51.3838386536]}, "type": "Feature", "properties": {"city": "Rochester", "group": 3, "name": "durobrivae_cantiacorum", "county": "Kent", "grid": "TQ7468", "roman_name": "DVROBRIVAE"}}, {"geometry": {"type": "Point", "coordinates": [1.06829857826, 51.2713928223]}, "type": "Feature", "properties": {"city": "Canterbury", "group": 3, "name": "durovernum", "county": "Kent", "grid": "TR1457", "roman_name": "DVROVERNVM"}}, {"geometry": {"type": "Point", "coordinates": [1.31558632851, 51.1207046509]}, "type": "Feature", "properties": {"city": "Dover", "group": 3, "name": "portus_dubris", "county": "Kent", "grid": "TR3241", "roman_name": "PORTVS DVBRIS"}}, {"geometry": {"type": "Point", "coordinates": [-0.0975758954883, 51.5120048523]}, "type": "Feature", "properties": {"city": "London", "group": 4, "name": "londinium", "county": "Greater London", "grid": "TQ3281", "roman_name": "LONDINIVM"}}, {"geometry": {"type": "Point", "coordinates": [0.500807344913, 51.3838386536]}, "type": "Feature", "properties": {"city": "Rochester", "group": 4, "name": "durobrivae_cantiacorum", "county": "Kent", "grid": "TQ7468", "roman_name": "DVROBRIVAE"}}, {"geometry": {"type": "Point", "coordinates": [1.06829857826, 51.2713928223]}, "type": "Feature", "properties": {"city": "Canterbury", "group": 4, "name": "durovernum", "county": "Kent", "grid": "TR1457", "roman_name": "DVROVERNVM"}}, {"geometry": {"type": "Point", "coordinates": [1.01185655594, 51.0659561157]}, "type": "Feature", "properties": {"city": "Lympne", "group": 4, "name": "portus_lemanis", "county": "Kent", "grid": "TR1134", "roman_name": "PORTVS LEMANIS"}}, {"geometry": {"type": "Point", "coordinates": [-0.0975758954883, 51.5120048523]}, "type": "Feature", "properties": {"city": "London", "group": 5, "name": "londinium", "county": "Greater London", "grid": "TQ3281", "roman_name": "LONDINIVM"}}, {"geometry": {"type": "Point", "coordinates": [0.461747974157, 51.7264480591]}, "type": "Feature", "properties": {"city": "Chelmsford", "group": 5, "name": "caesaromagus", "county": "Essex", "grid": "TL7006", "roman_name": "CAESAROMAGO"}}, {"geometry": {"type": "Point", "coordinates": [0.892068684101, 51.8875389099]}, "type": "Feature", "properties": {"city": "Colchester", "group": 5, "name": "camulodunum", "county": "Essex", "grid": "TL9925", "roman_name": "COLONIA"}}, {"geometry": {"type": "Point", "coordinates": [1.14305830002, 52.3578338623]}, "type": "Feature", "properties": {"city": "Scole", "group": 5, "name": "scole", "county": "Norfolk?", "grid": "TM1478", "roman_name": "Scole</A>VILLA FAVSTINI"}}, {"geometry": {"type": "Point", "coordinates": [1.29173159599, 52.5786514282]}, "type": "Feature", "properties": {"city": "Caistor St. Edmund", "group": 5, "name": "venta_icenorum", "county": "Norfolk", "grid": "TG2303", "roman_name": "ICINOS"}}, {"geometry": {"type": "Point", "coordinates": [0.625920712948, 52.307510376]}, "type": "Feature", "properties": {"city": "Lackford", "group": 5, "name": "camboritum", "county": "Suffolk?", "grid": "TL7971", "roman_name": "CAMBORICO"}}, {"geometry": {"type": "Point", "coordinates": [0.107771031559, 52.209980011]}, "type": "Feature", "properties": {"city": "Cambridge", "group": 5, "name": "duroliponte", "county": "Cambridgeshire", "grid": "TL4459", "roman_name": "DVROLIPONTE"}}, {"geometry": {"type": "Point", "coordinates": [-0.348009437323, 52.549949646]}, "type": "Feature", "properties": {"city": "Water Newton", "group": 5, "name": "durobrivae_catuvellorum", "county": "Cambridgeshire", "grid": "TL1296", "roman_name": "DVROBRIVAS"}}, {"geometry": {"type": "Point", "coordinates": [-0.540368258953, 52.9750747681]}, "type": "Feature", "properties": {"city": "Ancaster", "group": 5, "name": "causennae", "county": "Lincolnshire?", "grid": "SK9843", "roman_name": "CAVSENNIS"}}, {"geometry": {"type": "Point", "coordinates": [-0.546802282333, 53.2268943787]}, "type": "Feature", "properties": {"city": "Lincoln", "group": 5, "name": "lindum", "county": "Lincolnshire", "grid": "SK9771", "roman_name": "LINDO"}}, {"geometry": {"type": "Point", "coordinates": [-0.768622279167, 53.3282852173]}, "type": "Feature", "properties": {"city": "Littleborough", "group": 5, "name": "segelocum", "county": "Nottinghamshire", "grid": "SK8282", "roman_name": "SEGELOCI"}}, {"geometry": {"type": "Point", "coordinates": [-1.14018416405, 53.5203361511]}, "type": "Feature", "properties": {"city": "Doncaster", "group": 5, "name": "danum", "county": "South Yorkshire", "grid": "SE5703", "roman_name": "DANO"}}, {"geometry": {"type": "Point", "coordinates": [-1.36346840858, 53.719493866]}, "type": "Feature", "properties": {"city": "Castleford", "group": 5, "name": "lagentium", "county": "South Yorkshire?", "grid": "SE4225", "roman_name": "LEGIOLIO"}}, {"geometry": {"type": "Point", "coordinates": [-1.08542180061, 53.9604110718]}, "type": "Feature", "properties": {"city": "York", "group": 5, "name": "eburacum", "county": "North Yorkshire", "grid": "SE6052", "roman_name": "EBVRACO"}}, {"geometry": {"type": "Point", "coordinates": [-1.38841497898, 54.0881767273]}, "type": "Feature", "properties": {"city": "Aldborough", "group": 5, "name": "isurium", "county": "North Yorkshire", "grid": "SE4066", "roman_name": "ISVBRIGANTVM"}}, {"geometry": {"type": "Point", "coordinates": [-1.66120481491, 54.3858718872]}, "type": "Feature", "properties": {"city": "Catterick", "group": 5, "name": "cataractonium", "county": "North Yorkshire", "grid": "SE2299", "roman_name": "CATARACTONE"}}, {"geometry": {"type": "Point", "coordinates": [-2.01544809341, 54.512172699]}, "type": "Feature", "properties": {"city": "Bowes", "group": 5, "name": "lavatris", "county": "Durham", "grid": "NY9913", "roman_name": "LEVATRIS"}}, {"geometry": {"type": "Point", "coordinates": [-2.32446932793, 54.5207290649]}, "type": "Feature", "properties": {"city": "Brough Castle", "group": 5, "name": "verteris", "county": "Cumbria", "grid": "NY7914", "roman_name": "VERTERIS"}}, {"geometry": {"type": "Point", "coordinates": [-2.72839069366, 54.6448059082]}, "type": "Feature", "properties": {"city": "Brougham", "group": 5, "name": "brocavum", "county": "Cumbria", "grid": "NY5328", "roman_name": "BROCAVO"}}, {"geometry": {"type": "Point", "coordinates": [-2.95121979713, 54.8949279785]}, "type": "Feature", "properties": {"city": "Carlisle", "group": 5, "name": "luguvalium", "county": "Cumbria", "grid": "NY3956", "roman_name": "LVGVVALIO"}}, {"geometry": {"type": "Point", "coordinates": [-0.0975758954883, 51.5120048523]}, "type": "Feature", "properties": {"city": "London", "group": 6, "name": "londinium", "county": "Greater London", "grid": "TQ3281", "roman_name": "LONDINIVM"}}, {"geometry": {"type": "Point", "coordinates": [-0.36287561059, 51.7498321533]}, "type": "Feature", "properties": {"city": "St. Alban's", "group": 6, "name": "verulamium", "county": "Hertfordshire", "grid": "TL1307", "roman_name": "VERVLAMI"}}, {"geometry": {"type": "Point", "coordinates": [-0.532585859299, 51.8779716492]}, "type": "Feature", "properties": {"city": "Dunstable", "group": 6, "name": "durocobrivis", "county": "Bedfordshire", "grid": "TL0121", "roman_name": "DVROCOBRIVIS"}}, {"geometry": {"type": "Point", "coordinates": [-0.718339443207, 51.9880447388]}, "type": "Feature", "properties": {"city": "Dropshort", "group": 6, "name": "magiovinium", "county": "Buckinghamshire", "grid": "SP8833", "roman_name": "MAGIOVINIO"}}, {"geometry": {"type": "Point", "coordinates": [-0.991984009743, 52.1255874634]}, "type": "Feature", "properties": {"city": "Towcester", "group": 6, "name": "lactodurum", "county": "Northamptonshire", "grid": "SP6948", "roman_name": "LACTODORO"}}, {"geometry": {"type": "Point", "coordinates": [-1.10595083237, 52.2703819275]}, "type": "Feature", "properties": {"city": "Whilton Lodge", "group": 6, "name": "bannaventa", "county": "Northamptonshire", "grid": "SP6164", "roman_name": "ISANNAVANTIA"}}, {"geometry": {"type": "Point", "coordinates": [-1.22081792355, 52.4060630798]}, "type": "Feature", "properties": {"city": "Cave's Inn", "group": 6, "name": "tripontium", "county": "Warwickshire", "grid": "SP5379", "roman_name": "TRIPONTIO"}}, {"geometry": {"type": "Point", "coordinates": [-1.30776250362, 52.4875221252]}, "type": "Feature", "properties": {"city": "High Cross", "group": 6, "name": "venonis", "county": "Leicestershire", "grid": "SP4788", "roman_name": "VENONIS"}}, {"geometry": {"type": "Point", "coordinates": [-1.14296388626, 52.6303024292]}, "type": "Feature", "properties": {"city": "Leicester", "group": 6, "name": "ratae", "county": "Leicestershire", "grid": "SK5804", "roman_name": "RATAS"}}, {"geometry": {"type": "Point", "coordinates": [-1.05022513866, 52.8184051514]}, "type": "Feature", "properties": {"city": "Willoughby", "group": 6, "name": "vernemetum", "county": "Nottinghamshire", "grid": "SK6425", "roman_name": "VEROMETO"}}, {"geometry": {"type": "Point", "coordinates": [-0.957750856876, 52.9614830017]}, "type": "Feature", "properties": {"city": "Castle Hill", "group": 6, "name": "margidunum", "county": "Nottinghamshire", "grid": "SK7041", "roman_name": "MARGIDVNO"}}, {"geometry": {"type": "Point", "coordinates": [-0.881226420403, 53.0417098999]}, "type": "Feature", "properties": {"city": "East Stoke", "group": 6, "name": "ad_pontem", "county": "Nottinghamshire", "grid": "SK7550", "roman_name": "AD PONTEM"}}, {"geometry": {"type": "Point", "coordinates": [-0.759860754013, 53.1124267578]}, "type": "Feature", "properties": {"city": "Brough", "group": 6, "name": "crococalana", "county": "Nottinghamshire", "grid": "SK8358", "roman_name": "CROCOCALANA"}}, {"geometry": {"type": "Point", "coordinates": [-0.546802282333, 53.2268943787]}, "type": "Feature", "properties": {"city": "Lincoln", "group": 6, "name": "lindum", "county": "Lincolnshire", "grid": "SK9771", "roman_name": "LINDO"}}, {"geometry": {"type": "Point", "coordinates": [-0.778755664825, 50.8285827637]}, "type": "Feature", "properties": {"city": "Chichester", "group": 7, "name": "noviomagus_regnorum", "county": "Sussex", "grid": "SU8604", "roman_name": "REGNO"}}, {"geometry": {"type": "Point", "coordinates": [-1.3882676363, 50.91431427]}, "type": "Feature", "properties": {"city": "Bitterne", "group": 7, "name": "clausentum", "county": "Hampshire?", "grid": "SU4313", "roman_name": "CLAVSENTVM"}}, {"geometry": {"type": "Point", "coordinates": [-1.31502020359, 51.0578041077]}, "type": "Feature", "properties": {"city": "Winchester", "group": 7, "name": "venta_belgarum", "county": "Hampshire", "grid": "SU4829", "roman_name": "VENTA BELGARVM"}}, {"geometry": {"type": "Point", "coordinates": [-1.08083617687, 51.3529701233]}, "type": "Feature", "properties": {"city": "Silchester", "group": 7, "name": "calleva", "county": "Hampshire", "grid": "SU6462", "roman_name": "CALLEVA ATREBATVM"}}, {"geometry": {"type": "Point", "coordinates": [-0.518274664879, 51.4281425476]}, "type": "Feature", "properties": {"city": "Staines", "group": 7, "name": "pontes", "county": "Surrey", "grid": "TQ0371", "roman_name": "PONTIBVS"}}, {"geometry": {"type": "Point", "coordinates": [-0.0975758954883, 51.5120048523]}, "type": "Feature", "properties": {"city": "London", "group": 7, "name": "londinium", "county": "Greater London", "grid": "TQ3281", "roman_name": "LONDINIVM"}}, {"geometry": {"type": "Point", "coordinates": [-1.08542180061, 53.9604110718]}, "type": "Feature", "properties": {"city": "York", "group": 8, "name": "eburacum", "county": "North Yorkshire", "grid": "SE6052", "roman_name": "EBVRACVM"}}, {"geometry": {"type": "Point", "coordinates": [-1.36346840858, 53.719493866]}, "type": "Feature", "properties": {"city": "Castleford", "group": 8, "name": "lagentium", "county": "South Yorkshire?", "grid": "SE4225", "roman_name": "LAGECIO"}}, {"geometry": {"type": "Point", "coordinates": [-1.14018416405, 53.5203361511]}, "type": "Feature", "properties": {"city": "Doncaster", "group": 8, "name": "danum", "county": "South Yorkshire", "grid": "SE5703", "roman_name": "DANO"}}, {"geometry": {"type": "Point", "coordinates": [-0.768622279167, 53.3282852173]}, "type": "Feature", "properties": {"city": "Littleborough", "group": 8, "name": "segelocum", "county": "Nottinghamshire?", "grid": "SK8282", "roman_name": "AGELOCO"}}, {"geometry": {"type": "Point", "coordinates": [-0.546802282333, 53.2268943787]}, "type": "Feature", "properties": {"city": "Lincoln", "group": 8, "name": "lindum", "county": "Lincolnshire", "grid": "SK9771", "roman_name": "LINDO"}}, {"geometry": {"type": "Point", "coordinates": [-0.759860754013, 53.1124267578]}, "type": "Feature", "properties": {"city": "Brough", "group": 8, "name": "crococalana", "county": "Nottinghamshire", "grid": "SK8358", "roman_name": "CROCOCALANA"}}, {"geometry": {"type": "Point", "coordinates": [-0.957750856876, 52.9614830017]}, "type": "Feature", "properties": {"city": "Castle Hill", "group": 8, "name": "margidunum", "county": "Nottinghamshire", "grid": "SK7041", "roman_name": "MARGIDVNO"}}, {"geometry": {"type": "Point", "coordinates": [-1.05022513866, 52.8184051514]}, "type": "Feature", "properties": {"city": "Willoughby", "group": 8, "name": "vernemetum", "county": "Nottinghamshire", "grid": "SK6425", "roman_name": "VERNEMETO"}}, {"geometry": {"type": "Point", "coordinates": [-1.14296388626, 52.6303024292]}, "type": "Feature", "properties": {"city": "Leicester", "group": 8, "name": "ratae", "county": "Leicestershire", "grid": "SK5804", "roman_name": "RATIS"}}, {"geometry": {"type": "Point", "coordinates": [-1.30776250362, 52.4875221252]}, "type": "Feature", "properties": {"city": "High Cross", "group": 8, "name": "venonis", "county": "Leicestershire", "grid": "SP4788", "roman_name": "VENONIS"}}, {"geometry": {"type": "Point", "coordinates": [-1.10595083237, 52.2703819275]}, "type": "Feature", "properties": {"city": "Whilton Lodge", "group": 8, "name": "bannaventa", "county": "Northamptonshire", "grid": "SP6164", "roman_name": "BANNAVENTO"}}, {"geometry": {"type": "Point", "coordinates": [-0.718339443207, 51.9880447388]}, "type": "Feature", "properties": {"city": "Dropshort", "group": 8, "name": "magiovinium", "county": "Buckinghamshire", "grid": "SP8833", "roman_name": "MAGIOVINIO"}}, {"geometry": {"type": "Point", "coordinates": [-0.532585859299, 51.8779716492]}, "type": "Feature", "properties": {"city": "Dunstable", "group": 8, "name": "durocobrivis", "county": "Bedfordshire", "grid": "TL0121", "roman_name": "DVROCOBRIVIS"}}, {"geometry": {"type": "Point", "coordinates": [-0.36287561059, 51.7498321533]}, "type": "Feature", "properties": {"city": "St. Alban's", "group": 8, "name": "verulamium", "county": "Hertfordshire", "grid": "TL1307", "roman_name": "VERVLAMO"}}, {"geometry": {"type": "Point", "coordinates": [-0.0975758954883, 51.5120048523]}, "type": "Feature", "properties": {"city": "London", "group": 8, "name": "londinium", "county": "Greater London", "grid": "TQ3281", "roman_name": "LONDINIO"}}, {"geometry": {"type": "Point", "coordinates": [1.29173159599, 52.5786514282]}, "type": "Feature", "properties": {"city": "Caistor St. Edmund", "group": 9, "name": "venta_icenorum", "county": "Norfolk", "grid": "TG2303", "roman_name": "VENTA INECORVM"}}, {"geometry": {"type": "Point", "coordinates": [1.57266283035, 52.219669342]}, "type": "Feature", "properties": {"city": "nr. Saxmundham", "group": 9, "name": "saxmundham", "county": "Suffolk?", "grid": "TM4464", "roman_name": "SITOMAGO"}}, {"geometry": {"type": "Point", "coordinates": [1.08282995224, 52.1255569458]}, "type": "Feature", "properties": {"city": "Baylham House", "group": 9, "name": "combretovium", "county": "Suffolk", "grid": "TM1152", "roman_name": "COMBRETONIO"}}, {"geometry": {"type": "Point", "coordinates": [0.985101222992, 51.9751663208]}, "type": "Feature", "properties": {"city": "nr. Stratford St. Mary", "group": 9, "name": "ad_ansam", "county": "Suffolk?", "grid": "TM0535", "roman_name": "AD ANSAM"}}, {"geometry": {"type": "Point", "coordinates": [0.892068684101, 51.8875389099]}, "type": "Feature", "properties": {"city": "Colchester", "group": 9, "name": "camulodunum", "county": "Essex", "grid": "TL9925", "roman_name": "CAMOLODVO"}}, {"geometry": {"type": "Point", "coordinates": [0.699611544609, 51.8291549683]}, "type": "Feature", "properties": {"city": "Kelvedon", "group": 9, "name": "canonium", "county": "Essex", "grid": "TL8618", "roman_name": "CANONIO"}}, {"geometry": {"type": "Point", "coordinates": [0.461747974157, 51.7264480591]}, "type": "Feature", "properties": {"city": "Chelmsford", "group": 9, "name": "caesaromagus", "county": "Essex", "grid": "TL7006", "roman_name": "CAESAROMAGO"}}, {"geometry": {"type": "Point", "coordinates": [0.238512769341, 51.6050071716]}, "type": "Feature", "properties": {"city": "Nr. Romford", "group": 9, "name": "durolitum", "county": "Greater London?", "grid": "TQ5592", "roman_name": "DVROLITO"}}, {"geometry": {"type": "Point", "coordinates": [-0.0975758954883, 51.5120048523]}, "type": "Feature", "properties": {"city": "London", "group": 9, "name": "londinium", "county": "Greater London", "grid": "TQ3281", "roman_name": "LONDINIVM"}}, {"geometry": {"type": "Point", "coordinates": [-3.4153277874, 54.3420944214]}, "type": "Feature", "properties": {"city": "Ravenglass", "group": 10, "name": "glannoventa", "county": "Cumbria", "grid": "SD0895", "roman_name": "CLANOVENTA"}}, {"geometry": {"type": "Point", "coordinates": [-2.97097754478, 54.4183998108]}, "type": "Feature", "properties": {"city": "Ambleside", "group": 10, "name": "galava", "county": "Cumbria", "grid": "NY3703", "roman_name": "GALAVA"}}, {"geometry": {"type": "Point", "coordinates": [-2.75309276581, 54.3031005859]}, "type": "Feature", "properties": {"city": "Watercrook", "group": 10, "name": "alavana", "county": "Cumbria?", "grid": "SD5190", "roman_name": "ALONE"}}, {"geometry": {"type": "Point", "coordinates": [-2.59745311737, 54.1691436768]}, "type": "Feature", "properties": {"city": "Burrow in Lonsdale", "group": 10, "name": "calacum", "county": "Lancashire?", "grid": "SD6175", "roman_name": "CALACVM"}}, {"geometry": {"type": "Point", "coordinates": [-2.54676556587, 53.8098297119]}, "type": "Feature", "properties": {"city": "Ribchester", "group": 10, "name": "bremetenacum", "county": "Lancashire", "grid": "SD6435", "roman_name": "BREMETONACI"}}, {"geometry": {"type": "Point", "coordinates": [-2.63397192955, 53.5487098694]}, "type": "Feature", "properties": {"city": "Wigan", "group": 10, "name": "coccium", "county": "Lancashire?", "grid": "SD5806", "roman_name": "COCCIO"}}, {"geometry": {"type": "Point", "coordinates": [-2.25611662865, 53.4692115784]}, "type": "Feature", "properties": {"city": "Manchester", "group": 10, "name": "mamucium", "county": "Greater Manchester", "grid": "SJ8397", "roman_name": "MANCVNIO"}}, {"geometry": {"type": "Point", "coordinates": [-2.52465319633, 53.2525787354]}, "type": "Feature", "properties": {"city": "Northwich", "group": 10, "name": "condate", "county": "Cheshire", "grid": "SJ6573", "roman_name": "CONDATE"}}, {"geometry": {"type": "Point", "coordinates": [-2.68494462967, 52.9640808105]}, "type": "Feature", "properties": {"city": "Whitchurch", "group": 10, "name": "mediolanum", "county": "Shropshire", "grid": "SJ5441", "roman_name": "MEDIOLANO"}}, {"geometry": {"type": "Point", "coordinates": [-4.27231121063, 53.1331634521]}, "type": "Feature", "properties": {"city": "Caernarfon", "group": 11, "name": "segontium", "county": "Gwynedd", "grid": "SH4862", "roman_name": "SEGONTIO"}}, {"geometry": {"type": "Point", "coordinates": [-3.8421330452, 53.2125244141]}, "type": "Feature", "properties": {"city": "Caerhun", "group": 11, "name": "canovium", "county": "Gwynedd", "grid": "SH7770", "roman_name": "CONOVIO"}}, {"geometry": {"type": "Point", "coordinates": [-3.43911933899, 53.2540397644]}, "type": "Feature", "properties": {"city": "St. Asaph", "group": 11, "name": "st_asaph", "county": "Clwyd?", "grid": "SJ0474", "roman_name": "VARIS"}}, {"geometry": {"type": "Point", "coordinates": [-2.89803624153, 53.1874198914]}, "type": "Feature", "properties": {"city": "Chester", "group": 11, "name": "deva", "county": "Cheshire", "grid": "SJ4066", "roman_name": "DEVA"}}, {"geometry": {"type": "Point", "coordinates": [-4.30902147293, 51.8554649353]}, "type": "Feature", "properties": {"city": "Carmarthen", "group": 12, "name": "moridunum", "county": "Dyfed", "grid": "SN4120", "roman_name": "MVRIDVNO"}}, {"geometry": {"type": "Point", "coordinates": [-4.08223104477, 51.6618423462]}, "type": "Feature", "properties": {"city": "Loughor", "group": 12, "name": "leucarum", "county": "West Glamorgan", "grid": "SS5698", "roman_name": "LEVCARO"}}, {"geometry": {"type": "Point", "coordinates": [-3.82174921036, 51.6571807861]}, "type": "Feature", "properties": {"city": "Neath", "group": 12, "name": "nidum", "county": "West Glamorgan", "grid": "SS7497", "roman_name": "NIDO"}}, {"geometry": {"type": "Point", "coordinates": [-3.5989613533, 51.4895591736]}, "type": "Feature", "properties": {"city": "nr. Bridgend", "group": 12, "name": "places/bomium", "county": "Mid Glamorgan?", "grid": "SS8978", "roman_name": "BOMIO"}}, {"geometry": {"type": "Point", "coordinates": [-2.9675552845, 51.604385376]}, "type": "Feature", "properties": {"city": "Caerleon", "group": 12, "name": "isca_silurum", "county": "Gwent", "grid": "ST3390", "roman_name": "ISCAE"}}, {"geometry": {"type": "Point", "coordinates": [-2.91160368919, 51.6947517395]}, "type": "Feature", "properties": {"city": "Usk", "group": 12, "name": "burrium", "county": "Gwent", "grid": "SO3700", "roman_name": "BVRRIO"}}, {"geometry": {"type": "Point", "coordinates": [-3.03020167351, 51.8196640015]}, "type": "Feature", "properties": {"city": "Abergavenny", "group": 12, "name": "gobannium", "county": "Gwent", "grid": "SO2914", "roman_name": "GOBANNIO"}}, {"geometry": {"type": "Point", "coordinates": [-2.81714224815, 52.0731201172]}, "type": "Feature", "properties": {"city": "Kenchester", "group": 12, "name": "magnis", "county": "Hereford and Worcester", "grid": "SO4442", "roman_name": "MAGNIS"}}, {"geometry": {"type": "Point", "coordinates": [-2.88118219376, 52.3603897095]}, "type": "Feature", "properties": {"city": "Leintwardine", "group": 12, "name": "bravonium", "county": "Hereford and Worcester", "grid": "SO4074", "roman_name": "BRAVONIO"}}, {"geometry": {"type": "Point", "coordinates": [-2.65071868896, 52.6675796509]}, "type": "Feature", "properties": {"city": "Wroxeter", "group": 12, "name": "viroconium", "county": "Shropshire", "grid": "SJ5608", "roman_name": "VIROCONIO"}}, {"geometry": {"type": "Point", "coordinates": [-2.9675552845, 51.604385376]}, "type": "Feature", "properties": {"city": "Caerleon", "group": 13, "name": "isca_silurum", "county": "Gwent", "grid": "ST3390", "roman_name": "ISCA"}}, {"geometry": {"type": "Point", "coordinates": [-2.91160368919, 51.6947517395]}, "type": "Feature", "properties": {"city": "Usk", "group": 13, "name": "burrium", "county": "Gwent", "grid": "SO3700", "roman_name": "BVRRIO"}}, {"geometry": {"type": "Point", "coordinates": [-2.71072816849, 51.8040428162]}, "type": "Feature", "properties": {"city": "Monmouth", "group": 13, "name": "blestium", "county": "Gwent?", "grid": "SO5112", "roman_name": "BLESTIO"}}, {"geometry": {"type": "Point", "coordinates": [-2.52332901955, 51.9039421082]}, "type": "Feature", "properties": {"city": "Weston under Penyard", "group": 13, "name": "ariconium", "county": "Hereford and Worcester", "grid": "SO6423", "roman_name": "ARICONIO"}}, {"geometry": {"type": "Point", "coordinates": [-2.24688506126, 51.8598823547]}, "type": "Feature", "properties": {"city": "Gloucester", "group": 13, "name": "glevum", "county": "Gloucestershire", "grid": "SO8318", "roman_name": "CLEVO"}}, {"geometry": {"type": "Point", "coordinates": [-1.97105383873, 51.7072753906]}, "type": "Feature", "properties": {"city": "Cirencester", "group": 13, "name": "corinium", "county": "Gloucestershire!", "grid": "SP0201", "roman_name": "CORINIVM"}}, {"geometry": {"type": "Point", "coordinates": [-1.72587418556, 51.5630874634]}, "type": "Feature", "properties": {"city": "Wanborough", "group": 13, "name": "durocornovium", "county": "Wiltshire?", "grid": "SU1985", "roman_name": "DVROCORNOVIO"}}, {"geometry": {"type": "Point", "coordinates": [-1.35292363167, 51.4087486267]}, "type": "Feature", "properties": {"city": "Speen, nr Newbury", "group": 13, "name": "spinae", "county": "Berkshire?", "grid": "SU4568", "roman_name": "SPINAE"}}, {"geometry": {"type": "Point", "coordinates": [-1.08083617687, 51.3529701233]}, "type": "Feature", "properties": {"city": "Silchester", "group": 13, "name": "calleva", "county": "Hampshire", "grid": "SU6462", "roman_name": "CALLEVA"}}, {"geometry": {"type": "Point", "coordinates": [-2.9675552845, 51.604385376]}, "type": "Feature", "properties": {"city": "Caerleon", "group": 14, "name": "isca_silurum", "county": "Gwent", "grid": "ST3390", "roman_name": "ISCA"}}, {"geometry": {"type": "Point", "coordinates": [-2.77984380722, 51.6057739258]}, "type": "Feature", "properties": {"city": "Caerwent", "group": 14, "name": "venta_silurum", "county": "Gwent", "grid": "ST4690", "roman_name": "VENTA SILVRVM"}}, {"geometry": {"type": "Point", "coordinates": [-2.6479549408, 51.4716873169]}, "type": "Feature", "properties": {"city": "Sea Mills", "group": 14, "name": "abona", "county": "Avon", "grid": "ST5575", "roman_name": "ABONE"}}, {"geometry": {"type": "Point", "coordinates": [-2.47461533546, 51.4185600281]}, "type": "Feature", "properties": {"city": "Bitton, nr Willsbridge", "group": 14, "name": "trajectus", "county": "Willsbridge", "grid": "ST6769", "roman_name": "TRAIECTVS"}}, {"geometry": {"type": "Point", "coordinates": [-2.35921144485, 51.374004364]}, "type": "Feature", "properties": {"city": "Bath", "group": 14, "name": "aquae_sulis", "county": "Avon", "grid": "ST7564", "roman_name": "AQVIS SOLIS"}}, {"geometry": {"type": "Point", "coordinates": [-2.04312539101, 51.4015350342]}, "type": "Feature", "properties": {"city": "Sandy Lane", "group": 14, "name": "verlucio", "county": "Wiltshire", "grid": "ST9767", "roman_name": "VERLVCIONE"}}, {"geometry": {"type": "Point", "coordinates": [-1.69796264172, 51.4191322327]}, "type": "Feature", "properties": {"city": "Mildenhall", "group": 14, "name": "cunetio", "county": "Wiltshire", "grid": "SU2169", "roman_name": "CVNETIONE"}}, {"geometry": {"type": "Point", "coordinates": [-1.35292363167, 51.4087486267]}, "type": "Feature", "properties": {"city": "Speen, nr Newbury", "group": 14, "name": "spinae", "county": "Berkshire?", "grid": "SU4568", "roman_name": "SPINIS"}}, {"geometry": {"type": "Point", "coordinates": [-1.08083617687, 51.3529701233]}, "type": "Feature", "properties": {"city": "Silchester", "group": 14, "name": "calleva", "county": "Hampshire", "grid": "SU6462", "roman_name": "CALLEVA"}}, {"geometry": {"type": "Point", "coordinates": [-1.08083617687, 51.3529701233]}, "type": "Feature", "properties": {"city": "Silchester", "group": 15, "name": "calleva", "county": "Hampshire", "grid": "SU6462", "roman_name": "CALLEVA"}}, {"geometry": {"type": "Point", "coordinates": [-0.941592872143, 51.1629371643]}, "type": "Feature", "properties": {"city": "Neatham", "group": 15, "name": "neatham", "county": "Hampshire?", "grid": "SU7441", "roman_name": "VINDOMI"}}, {"geometry": {"type": "Point", "coordinates": [-1.31502020359, 51.0578041077]}, "type": "Feature", "properties": {"city": "Winchester", "group": 15, "name": "venta_belgarum", "county": "Hampshire", "grid": "SU4829", "roman_name": "VENTA BELGARVM"}}, {"geometry": {"type": "Point", "coordinates": [-1.51470577717, 51.0677986145]}, "type": "Feature", "properties": {"city": "Buckholt Farm, nr Horsebridge", "group": 15, "name": "briga", "county": "Hampshire?", "grid": "SU3430", "roman_name": "BRIGE"}}, {"geometry": {"type": "Point", "coordinates": [-1.81437170506, 51.086643219]}, "type": "Feature", "properties": {"city": "Old Sarum", "group": 15, "name": "sorviodunum", "county": "Wiltshire", "grid": "SU1332", "roman_name": "SORBIODONI"}}, {"geometry": {"type": "Point", "coordinates": [-2.07097744942, 50.8169670105]}, "type": "Feature", "properties": {"city": "Badbury", "group": 15, "name": "vindocladia", "county": "Dorset", "grid": "ST9502", "roman_name": "VINDOGLADIA"}}, {"geometry": {"type": "Point", "coordinates": [-2.43908572197, 50.7082328796]}, "type": "Feature", "properties": {"city": "Dorchester", "group": 15, "name": "durnovaria", "county": "Dorset", "grid": "SY6990", "roman_name": "DVRONOVARIA"}}, {"geometry": {"type": "Point", "coordinates": [-3.16378378868, 50.8021850586]}, "type": "Feature", "properties": {"city": "Honiton", "group": 15, "name": "honiton", "county": "Devon?", "grid": "ST1801", "roman_name": "MVRIDVNVM"}}, {"geometry": {"type": "Point", "coordinates": [-3.5300257206, 50.717010498]}, "type": "Feature", "properties": {"city": "Exeter", "group": 15, "name": "isca_dumnoniorum", "county": "Devon", "grid": "SX9292", "roman_name": "ISCA DVMNONIORVM"}}]}