{
"type": "FeatureCollection",
"name": "LimesMoesica_Legionslager",
"crs": { "type": "name", "properties": { "name": "urn:ogc:def:crs:OGC:1.3:CRS84" } },
"features": [
{ "type": "Feature", "properties": { "fid": 1, "typ": "Legionslager", "name": "Legionslager Viminatium" }, "geometry": { "type": "Point", "coordinates": [ 21.230556, 44.732778 ] } },
{ "type": "Feature", "properties": { "fid": 2, "typ": "Legionslager", "name": "Legionslager Troesmis" }, "geometry": { "type": "Point", "coordinates": [ 28.195097, 45.143236 ] } },
{ "type": "Feature", "properties": { "fid": 3, "typ": "Legionslager", "name": "Legionslager Ratiaria" }, "geometry": { "type": "Point", "coordinates": [ 22.916667, 43.816667 ] } },
{ "type": "Feature", "properties": { "fid": 4, "typ": "Legionslager", "name": "Legionslager Oescus" }, "geometry": { "type": "Point", "coordinates": [ 24.483333, 43.7 ] } },
{ "type": "Feature", "properties": { "fid": 5, "typ": "Legionslager", "name": "Legionslager Novae" }, "geometry": { "type": "Point", "coordinates": [ 25.394278, 43.612889 ] } },
{ "type": "Feature", "properties": { "fid": 6, "typ": "Legionslager", "name": "Legionslager Abrittus" }, "geometry": { "type": "Point", "coordinates": [ 26.551667, 43.521111 ] } },
{ "type": "Feature", "properties": { "fid": 7, "typ": "Legionslager", "name": "Legionslager Durostorum" }, "geometry": { "type": "Point", "coordinates": [ 27.266667, 44.116667 ] } }
]
}
