{
"type": "FeatureCollection",
"name": "LimesGermaniaInferior_Kastell",
"crs": { "type": "name", "properties": { "name": "urn:ogc:def:crs:OGC:1.3:CRS84" } },
"features": [
{ "type": "Feature", "properties": { "fid": 1, "typ2": "Alenkastell", "typ": "Kastell", "name": "Ulpia Noviomagus Batavorum" }, "geometry": { "type": "Point", "coordinates": [ 5.8925, 51.8375 ] } },
{ "type": "Feature", "properties": { "fid": 2, "typ2": "Alenkastell", "typ": "Kastell", "name": "Burginatium" }, "geometry": { "type": "Point", "coordinates": [ 6.318889, 51.713889 ] } },
{ "type": "Feature", "properties": { "fid": 3, "typ2": "Alenkastell", "typ": "Kastell", "name": "Asciburgium" }, "geometry": { "type": "Point", "coordinates": [ 6.67, 51.431667 ] } },
{ "type": "Feature", "properties": { "fid": 4, "typ2": "Alenkastell", "typ": "Kastell", "name": "Gelduba" }, "geometry": { "type": "Point", "coordinates": [ 6.6825, 51.333194 ] } },
{ "type": "Feature", "properties": { "fid": 5, "typ2": "Alenkastell", "typ": "Kastell", "name": "Novaesium" }, "geometry": { "type": "Point", "coordinates": [ 6.721944, 51.183889 ] } },
{ "type": "Feature", "properties": { "fid": 6, "typ2": "Alenkastell", "typ": "Kastell", "name": "Durnomagus" }, "geometry": { "type": "Point", "coordinates": [ 6.840556, 51.0925 ] } },
{ "type": "Feature", "properties": { "fid": 7, "typ2": "Auxiliarkastell", "typ": "Kastell", "name": "Grinnes" }, "geometry": { "type": "Point", "coordinates": [ 5.349167, 51.801111 ] } },
{ "type": "Feature", "properties": { "fid": 8, "typ2": "Auxiliarkastell", "typ": "Kastell", "name": "Fectio" }, "geometry": { "type": "Point", "coordinates": [ 5.165556, 52.056111 ] } },
{ "type": "Feature", "properties": { "fid": 9, "typ2": "Auxiliarkastell", "typ": "Kastell", "name": "Carvo" }, "geometry": { "type": "Point", "coordinates": [ 5.5625, 51.929722 ] } },
{ "type": "Feature", "properties": { "fid": 10, "typ2": "Auxiliarkastell", "typ": "Kastell", "name": "Kastell Overbetuwe-Randwijk" }, "geometry": { "type": "Point", "coordinates": [ 5.710278, 51.954444 ] } },
{ "type": "Feature", "properties": { "fid": 11, "typ2": "Auxiliarkastell", "typ": "Kastell", "name": "Kastell Overbetuwe-Driel" }, "geometry": { "type": "Point", "coordinates": [ 5.820833, 51.959444 ] } },
{ "type": "Feature", "properties": { "fid": 12, "typ2": "Auxiliarkastell", "typ": "Kastell", "name": "Castra Herculis" }, "geometry": { "type": "Point", "coordinates": [ 5.873611, 51.970833 ] } },
{ "type": "Feature", "properties": { "fid": 13, "typ2": "Auxiliarkastell", "typ": "Kastell", "name": "Castra Herculis" }, "geometry": { "type": "Point", "coordinates": [ 5.873611, 51.970833 ] } },
{ "type": "Feature", "properties": { "fid": 14, "typ2": "Auxiliarkastell", "typ": "Kastell", "name": "Castra Herculis" }, "geometry": { "type": "Point", "coordinates": [ 5.873611, 51.970833 ] } },
{ "type": "Feature", "properties": { "fid": 15, "typ2": "Auxiliarkastell", "typ": "Kastell", "name": "Castra Herculis" }, "geometry": { "type": "Point", "coordinates": [ 5.873611, 51.970833 ] } },
{ "type": "Feature", "properties": { "fid": 16, "typ2": "Auxiliarkastell", "typ": "Kastell", "name": "Kastell Duiven-Loowaard" }, "geometry": { "type": "Point", "coordinates": [ 5.9875, 51.920833 ] } },
{ "type": "Feature", "properties": { "fid": 17, "typ2": "Auxiliarkastell", "typ": "Kastell", "name": "Harenatium" }, "geometry": { "type": "Point", "coordinates": [ 6.128333, 51.813333 ] } },
{ "type": "Feature", "properties": { "fid": 18, "typ2": "Auxiliarkastell", "typ": "Kastell", "name": "Kastell Steincheshof" }, "geometry": { "type": "Point", "coordinates": [ 6.234444, 51.759167 ] } },
{ "type": "Feature", "properties": { "fid": 19, "typ2": "Auxiliarkastell", "typ": "Kastell", "name": "Kastell Wesel-Büderich" }, "geometry": { "type": "Point", "coordinates": [ 6.580556, 51.638333 ] } },
{ "type": "Feature", "properties": { "fid": 20, "typ2": "Auxiliarkastell", "typ": "Kastell", "name": "Gelduba" }, "geometry": { "type": "Point", "coordinates": [ 6.6825, 51.333194 ] } },
{ "type": "Feature", "properties": { "fid": 21, "typ2": "Auxiliarkastell", "typ": "Kastell", "name": "Gelduba" }, "geometry": { "type": "Point", "coordinates": [ 6.6825, 51.333194 ] } },
{ "type": "Feature", "properties": { "fid": 22, "typ2": "Auxiliarkastell", "typ": "Kastell", "name": "Römerlager Wesseling" }, "geometry": { "type": "Point", "coordinates": [ 6.999236, 50.820208 ] } },
{ "type": "Feature", "properties": { "fid": 23, "typ2": "Auxiliarkastell", "typ": "Kastell", "name": "Kastell Huissen" }, "geometry": { "type": "Point", "coordinates": [ 5.943333, 51.935278 ] } },
{ "type": "Feature", "properties": { "fid": 24, "typ2": "Auxiliarkastell", "typ": "Kastell", "name": "Ceuclum" }, "geometry": { "type": "Point", "coordinates": [ 5.882969, 51.729125 ] } },
{ "type": "Feature", "properties": { "fid": 25, "typ2": "Auxiliarkastell", "typ": "Kastell", "name": "Novaesium" }, "geometry": { "type": "Point", "coordinates": [ 6.721944, 51.183889 ] } },
{ "type": "Feature", "properties": { "fid": 26, "typ2": "Auxiliarkastell", "typ": "Kastell", "name": "Bonna" }, "geometry": { "type": "Point", "coordinates": [ 7.1, 50.74501 ] } },
{ "type": "Feature", "properties": { "fid": 27, "typ2": "Festung", "typ": "Kastell", "name": "Rigomagus" }, "geometry": { "type": "Point", "coordinates": [ 7.227361, 50.579583 ] } },
{ "type": "Feature", "properties": { "fid": 28, "typ2": "Flottenkastell", "typ": "Kastell", "name": "Flottenkastell Alteburg" }, "geometry": { "type": "Point", "coordinates": [ 6.979444, 50.904167 ] } },
{ "type": "Feature", "properties": { "fid": 29, "typ2": "Flottenkastell", "typ": "Kastell", "name": "Fectio" }, "geometry": { "type": "Point", "coordinates": [ 5.165556, 52.056111 ] } },
{ "type": "Feature", "properties": { "fid": 30, "typ2": "Kleinkastell", "typ": "Kastell", "name": "Kleinkastell Ockenburgh" }, "geometry": { "type": "Point", "coordinates": [ 5.691528, 52.283889 ] } },
{ "type": "Feature", "properties": { "fid": 31, "typ2": "Kleinkastell", "typ": "Kastell", "name": "Kleinkastell Bodegraven" }, "geometry": { "type": "Point", "coordinates": [ 4.745694, 52.08375 ] } },
{ "type": "Feature", "properties": { "fid": 32, "typ2": "Kleinkastell", "typ": "Kastell", "name": "Quadriburgium" }, "geometry": { "type": "Point", "coordinates": [ 6.178889, 51.777778 ] } },
{ "type": "Feature", "properties": { "fid": 33, "typ2": "Kleinkastell", "typ": "Kastell", "name": "Kleinkastell Werthausen" }, "geometry": { "type": "Point", "coordinates": [ 6.711111, 51.422222 ] } },
{ "type": "Feature", "properties": { "fid": 34, "typ2": "Kleinkastell", "typ": "Kastell", "name": "Kleinkastell am Reckberg" }, "geometry": { "type": "Point", "coordinates": [ 6.766536, 51.175089 ] } },
{ "type": "Feature", "properties": { "fid": 35, "typ2": "Kohortenkastell", "typ": "Kastell", "name": "Kastell Aardenburg" }, "geometry": { "type": "Point", "coordinates": [ 3.446667, 51.272639 ] } },
{ "type": "Feature", "properties": { "fid": 36, "typ2": "Kohortenkastell", "typ": "Kastell", "name": "Lugdunum Batavorum (Kastell)" }, "geometry": { "type": "Point", "coordinates": [ 4.383333, 52.211111 ] } },
{ "type": "Feature", "properties": { "fid": 37, "typ2": "Kohortenkastell", "typ": "Kastell", "name": "Praetorium Agrippinae" }, "geometry": { "type": "Point", "coordinates": [ 4.431667, 52.179722 ] } },
{ "type": "Feature", "properties": { "fid": 38, "typ2": "Kohortenkastell", "typ": "Kastell", "name": "Matilo" }, "geometry": { "type": "Point", "coordinates": [ 4.518406, 52.149711 ] } },
{ "type": "Feature", "properties": { "fid": 39, "typ2": "Kohortenkastell", "typ": "Kastell", "name": "Albaniana" }, "geometry": { "type": "Point", "coordinates": [ 4.661619, 52.129403 ] } },
{ "type": "Feature", "properties": { "fid": 40, "typ2": "Kohortenkastell", "typ": "Kastell", "name": "Laurium (castellum)" }, "geometry": { "type": "Point", "coordinates": [ 4.883953, 52.086064 ] } },
{ "type": "Feature", "properties": { "fid": 41, "typ2": "Kohortenkastell", "typ": "Kastell", "name": "Fletio" }, "geometry": { "type": "Point", "coordinates": [ 5.041944, 52.087222 ] } },
{ "type": "Feature", "properties": { "fid": 42, "typ2": "Kohortenkastell", "typ": "Kastell", "name": "Traiectum (Utrecht)" }, "geometry": { "type": "Point", "coordinates": [ 5.121642, 52.090692 ] } },
{ "type": "Feature", "properties": { "fid": 43, "typ2": "Kohortenkastell", "typ": "Kastell", "name": "Levefanum" }, "geometry": { "type": "Point", "coordinates": [ 5.352778, 51.9625 ] } },
{ "type": "Feature", "properties": { "fid": 44, "typ2": "Kohortenkastell", "typ": "Kastell", "name": "Mannaricium" }, "geometry": { "type": "Point", "coordinates": [ 5.422778, 51.970278 ] } },
{ "type": "Feature", "properties": { "fid": 45, "typ2": "Kohortenkastell", "typ": "Kastell", "name": "Carvium" }, "geometry": { "type": "Point", "coordinates": [ 6.0875, 51.868611 ] } },
{ "type": "Feature", "properties": { "fid": 46, "typ2": "Kohortenkastell", "typ": "Kastell", "name": "Asciburgium" }, "geometry": { "type": "Point", "coordinates": [ 6.67, 51.431667 ] } },
{ "type": "Feature", "properties": { "fid": 47, "typ2": "Kohortenkastell", "typ": "Kastell", "name": "Rigomagus" }, "geometry": { "type": "Point", "coordinates": [ 7.227361, 50.579583 ] } },
{ "type": "Feature", "properties": { "fid": 48, "typ2": "Marschlager", "typ": "Kastell", "name": "Marschlager Ermelo" }, "geometry": { "type": "Point", "coordinates": [ 5.691528, 52.283889 ] } },
{ "type": "Feature", "properties": { "fid": 49, "typ2": "Marschlager", "typ": "Kastell", "name": "Gelduba" }, "geometry": { "type": "Point", "coordinates": [ 6.6825, 51.333194 ] } },
{ "type": "Feature", "properties": { "fid": 50, "typ2": "Numeruskastell", "typ": "Kastell", "name": "Quadriburgium" }, "geometry": { "type": "Point", "coordinates": [ 6.178889, 51.777778 ] } },
{ "type": "Feature", "properties": { "fid": 51, "typ2": "Numeruskastell", "typ": "Kastell", "name": "Quadriburgium" }, "geometry": { "type": "Point", "coordinates": [ 6.178889, 51.777778 ] } },
{ "type": "Feature", "properties": { "fid": 52, "typ2": "nan", "typ": "Kastell", "name": "Kastell Velsen I" }, "geometry": { "type": "Point", "coordinates": [ 4.669444, 52.451944 ] } },
{ "type": "Feature", "properties": { "fid": 53, "typ2": "nan", "typ": "Kastell", "name": "Kastell Velsen II" }, "geometry": { "type": "Point", "coordinates": [ 4.659306, 52.456389 ] } },
{ "type": "Feature", "properties": { "fid": 54, "typ2": "nan", "typ": "Kastell", "name": "Kastell Maldegem-Vake" }, "geometry": { "type": "Point", "coordinates": [ 3.425139, 51.222361 ] } },
{ "type": "Feature", "properties": { "fid": 55, "typ2": "nan", "typ": "Kastell", "name": "Quadriburgium" }, "geometry": { "type": "Point", "coordinates": [ 6.178889, 51.777778 ] } },
{ "type": "Feature", "properties": { "fid": 56, "typ2": "nan", "typ": "Kastell", "name": "Catualium" }, "geometry": { "type": "Point", "coordinates": [ 5.893875, 51.176456 ] } },
{ "type": "Feature", "properties": { "fid": 57, "typ2": "nan", "typ": "Kastell", "name": "Haus Bürgel" }, "geometry": { "type": "Point", "coordinates": [ 6.873333, 51.129722 ] } },
{ "type": "Feature", "properties": { "fid": 58, "typ2": "nan", "typ": "Kastell", "name": "Bonna" }, "geometry": { "type": "Point", "coordinates": [ 7.1, 50.745 ] } },
{ "type": "Feature", "properties": { "fid": 59, "typ2": "Vexillationskastell", "typ": "Kastell", "name": "Praetorium Agrippinae" }, "geometry": { "type": "Point", "coordinates": [ 4.431667, 52.179722 ] } },
{ "type": "Feature", "properties": { "fid": 60, "typ2": "Vexillationskastell", "typ": "Kastell", "name": "Nigrum Pullum" }, "geometry": { "type": "Point", "coordinates": [ 4.715925, 52.105097 ] } },
{ "type": "Feature", "properties": { "fid": 61, "typ2": "Vexillationskastell", "typ": "Kastell", "name": "Castra Herculis" }, "geometry": { "type": "Point", "coordinates": [ 5.873611, 51.970833 ] } },
{ "type": "Feature", "properties": { "fid": 62, "typ2": "Vexillationskastell", "typ": "Kastell", "name": "Asciburgium" }, "geometry": { "type": "Point", "coordinates": [ 6.67, 51.431667 ] } },
{ "type": "Feature", "properties": { "fid": 63, "typ2": "Vexillationskastell", "typ": "Kastell", "name": "Asciburgium" }, "geometry": { "type": "Point", "coordinates": [ 6.67, 51.431667 ] } },
{ "type": "Feature", "properties": { "fid": 64, "typ2": "Vexillationslager", "typ": "Kastell", "name": "Novaesium" }, "geometry": { "type": "Point", "coordinates": [ 6.721944, 51.183889 ] } },
{ "type": "Feature", "properties": { "fid": 65, "typ2": "Wachturm", "typ": "Kastell", "name": "Kleinkastell am Reckberg" }, "geometry": { "type": "Point", "coordinates": [ 6.766536, 51.175089 ] } }
]
}
