{
   "type": "FeatureCollection",
   "features": [
  {
    "type": "Feature",
    "geometry": {
       "type": "Point",
       "coordinates":  [ 8.203443,50.189704 ]
    },
    "properties": {
    "limestownpard":"Orlen",
    "limestown":"Taunusstein",
    "limesobject":"Zugmantel",
    "ID":1,
    "limescategory":"Kastell"
    }
  },
  {
    "type": "Feature",
    "geometry": {
       "type": "Point",
       "coordinates":  [ 8.333088,50.205588 ]
    },
    "properties": {
    "limestownpard":"Heftrich",
    "limestown":"Idstein",
    "limesobject":"Alteburg-Heftrich",
    "ID":2,
    "limescategory":"Kastell"
    }
  },
  {
    "type": "Feature",
    "geometry": {
       "type": "Point",
       "coordinates":  [ 8.444662,50.227149 ]
    },
    "properties": {
    "limestownpard":"Niederreifenberg",
    "limestown":"Schmitten",
    "limesobject":"Feldberg",
    "ID":3,
    "limescategory":"Kastell"
    }
  },
  {
    "type": "Feature",
    "geometry": {
       "type": "Point",
       "coordinates":  [ 8.566659,50.271522 ]
    },
    "properties": {
    "limestownpard":"",
    "limestown":"Bad Homburg",
    "limesobject":"Saalburg",
    "ID":4,
    "limescategory":"Kastell"
    }
  },
  {
    "type": "Feature",
    "geometry": {
       "type": "Point",
       "coordinates":  [ 8.635664,50.313041 ]
    },
    "properties": {
    "limestownpard":"Ober-Rosbach",
    "limestown":"Rosbach",
    "limesobject":"Kapersburg",
    "ID":5,
    "limescategory":"Kastell"
    }
  },
  {
    "type": "Feature",
    "geometry": {
       "type": "Point",
       "coordinates":  [ 8.753502,50.341669 ]
    },
    "properties": {
    "limestownpard":"",
    "limestown":"Friedberg",
    "limesobject":"Friedberg",
    "ID":6,
    "limescategory":"Kastell"
    }
  },
  {
    "type": "Feature",
    "geometry": {
       "type": "Point",
       "coordinates":  [ 8.784294,50.487393 ]
    },
    "properties": {
    "limestownpard":"Muschenheim",
    "limestown":"Lich",
    "limesobject":"Arnsburg",
    "ID":7,
    "limescategory":"Kastell"
    }
  },
  {
    "type": "Feature",
    "geometry": {
       "type": "Point",
       "coordinates":  [ 8.980408,50.080342 ]
    },
    "properties": {
    "limestownpard":"",
    "limestown":"Großkrotzenburg",
    "limesobject":"Gross-Krotzenburg",
    "ID":8,
    "limescategory":"Kastell"
    }
  },
  {
    "type": "Feature",
    "geometry": {
       "type": "Point",
       "coordinates":  [ 8.98419,50.222685 ]
    },
    "properties": {
    "limestownpard":"Marköbel",
    "limestown":"Hammersbach",
    "limesobject":"Marköbel",
    "ID":9,
    "limescategory":"Kastell"
    }
  },
  {
    "type": "Feature",
    "geometry": {
       "type": "Point",
       "coordinates":  [ 9.144737,49.801302 ]
    },
    "properties": {
    "limestownpard":"Wörth am Main",
    "limestown":"Wörth am Main",
    "limesobject":"Wörth",
    "ID":10,
    "limescategory":"Kastell"
    }
  },
  {
    "type": "Feature",
    "geometry": {
       "type": "Point",
       "coordinates":  [ 9.423646,49.427522 ]
    },
    "properties": {
    "limestownpard":"",
    "limestown":"Osterburken",
    "limesobject":"Osterburken-Kohortenkastell",
    "ID":11,
    "limescategory":"Kastell"
    }
  },
  {
    "type": "Feature",
    "geometry": {
       "type": "Point",
       "coordinates":  [ 9.424439,49.426728 ]
    },
    "properties": {
    "limestownpard":"",
    "limestown":"Osterburken",
    "limesobject":"Osterburken-Annexkastell",
    "ID":12,
    "limescategory":"Kastell"
    }
  },
  {
    "type": "Feature",
    "geometry": {
       "type": "Point",
       "coordinates":  [ 9.469169,49.310942 ]
    },
    "properties": {
    "limestownpard":"",
    "limestown":"Jagsthausen",
    "limesobject":"Jagsthausen",
    "ID":13,
    "limescategory":"Kastell"
    }
  },
  {
    "type": "Feature",
    "geometry": {
       "type": "Point",
       "coordinates":  [ 9.556183,49.081095 ]
    },
    "properties": {
    "limestownpard":"",
    "limestown":"Mainhardt",
    "limesobject":"Mainhardt",
    "ID":14,
    "limescategory":"Kastell"
    }
  },
  {
    "type": "Feature",
    "geometry": {
       "type": "Point",
       "coordinates":  [ 9.642325,48.871517 ]
    },
    "properties": {
    "limestownpard":"",
    "limestown":"Welzheim",
    "limesobject":"Welzheim-Ost",
    "ID":15,
    "limescategory":"Kastell"
    }
  },
  {
    "type": "Feature",
    "geometry": {
       "type": "Point",
       "coordinates":  [ 9.688578,48.798115 ]
    },
    "properties": {
    "limestownpard":"",
    "limestown":"Lorch",
    "limesobject":"Lorch",
    "ID":16,
    "limescategory":"Kastell"
    }
  },
  {
    "type": "Feature",
    "geometry": {
       "type": "Point",
       "coordinates":  [ 9.777356,48.786795 ]
    },
    "properties": {
    "limestownpard":"",
    "limestown":"Schwäbisch Gmünd",
    "limesobject":"Schirenhof",
    "ID":17,
    "limescategory":"Kastell"
    }
  },
  {
    "type": "Feature",
    "geometry": {
       "type": "Point",
       "coordinates":  [ 9.923602,48.819042 ]
    },
    "properties": {
    "limestownpard":"Unterböbingen",
    "limestown":"Böbingen",
    "limesobject":"Unterböbingen",
    "ID":18,
    "limescategory":"Kastell"
    }
  },
  {
    "type": "Feature",
    "geometry": {
       "type": "Point",
       "coordinates":  [ 10.085005,48.835827 ]
    },
    "properties": {
    "limestownpard":"",
    "limestown":"Aalen",
    "limesobject":"Aalen",
    "ID":19,
    "limescategory":"Kastell"
    }
  },
  {
    "type": "Feature",
    "geometry": {
       "type": "Point",
       "coordinates":  [ 10.145006,48.909705 ]
    },
    "properties": {
    "limestownpard":"Buch",
    "limestown":"Rainau",
    "limesobject":"Rainau-Buch",
    "ID":20,
    "limescategory":"Kastell"
    }
  },
  {
    "type": "Feature",
    "geometry": {
       "type": "Point",
       "coordinates":  [ 10.285661,48.983138 ]
    },
    "properties": {
    "limestownpard":"Pfahlheim",
    "limestown":"Ellwangen",
    "limesobject":"Halheim",
    "ID":21,
    "limescategory":"Kastell"
    }
  },
  {
    "type": "Feature",
    "geometry": {
       "type": "Point",
       "coordinates":  [ 10.578748,49.102804 ]
    },
    "properties": {
    "limestownpard":"Dambach",
    "limestown":"Ehingen",
    "limesobject":"Dambach",
    "ID":22,
    "limescategory":"Kastell"
    }
  },
  {
    "type": "Feature",
    "geometry": {
       "type": "Point",
       "coordinates":  [ 10.704499,49.057194 ]
    },
    "properties": {
    "limestownpard":"",
    "limestown":"Gnotzheim",
    "limesobject":"Gnotzheim",
    "ID":23,
    "limescategory":"Kastell"
    }
  },
  {
    "type": "Feature",
    "geometry": {
       "type": "Point",
       "coordinates":  [ 10.9624,49.030803 ]
    },
    "properties": {
    "limestownpard":"Weißenburg in Bayern",
    "limestown":"Weißenburg",
    "limesobject":"Weissenburg",
    "ID":24,
    "limescategory":"Kastell"
    }
  },
  {
    "type": "Feature",
    "geometry": {
       "type": "Point",
       "coordinates":  [ 10.987994,49.06389 ]
    },
    "properties": {
    "limestownpard":"",
    "limestown":"Ellingen",
    "limesobject":"Ellingen",
    "ID":25,
    "limescategory":"Kastell"
    }
  },
  {
    "type": "Feature",
    "geometry": {
       "type": "Point",
       "coordinates":  [ 11.0765,49.0193 ]
    },
    "properties": {
    "limestownpard":"",
    "limestown":"Burgsalach",
    "limesobject":"Burgsalach",
    "ID":26,
    "limescategory":"Kastell"
    }
  },
  {
    "type": "Feature",
    "geometry": {
       "type": "Point",
       "coordinates":  [ 11.263661,48.883931 ]
    },
    "properties": {
    "limestownpard":"Pfünz",
    "limestown":"Walting",
    "limesobject":"Pfünz",
    "ID":27,
    "limescategory":"Kastell"
    }
  },
  {
    "type": "Feature",
    "geometry": {
       "type": "Point",
       "coordinates":  [ 11.360479,48.946155 ]
    },
    "properties": {
    "limestownpard":"Böhming",
    "limestown":"Kipfenberg",
    "limesobject":"Böhming",
    "ID":28,
    "limescategory":"Kastell"
    }
  },
  {
    "type": "Feature",
    "geometry": {
       "type": "Point",
       "coordinates":  [ 11.682227,48.818523 ]
    },
    "properties": {
    "limestownpard":"Pförring",
    "limestown":"Pförring",
    "limesobject":"Pförring",
    "ID":29,
    "limescategory":"Kastell"
    }
  },
  {
    "type": "Feature",
    "geometry": {
       "type": "Point",
       "coordinates":  [ 11.770968,48.849843 ]
    },
    "properties": {
    "limestownpard":"Eining",
    "limestown":"Neustadt an der Donau",
    "limesobject":"Eining Kohortenkastell",
    "ID":30,
    "limescategory":"Kastell"
    }
  },
  {
    "type": "Feature",
    "geometry": {
       "type": "Point",
       "coordinates":  [ 11.776493,48.859567 ]
    },
    "properties": {
    "limestownpard":"Eining",
    "limestown":"Neustadt an der Donau",
    "limesobject":"Eining Unterfeld",
    "ID":31,
    "limescategory":"Kastell"
    }
  },
  {
    "type": "Feature",
    "geometry": {
       "type": "Point",
       "coordinates":  [ 7.469069,50.436637 ]
    },
    "properties": {
    "limestownpard":"Heddesdorf",
    "limestown":"Neuwied",
    "limesobject":"Heddesdorf",
    "ID":32,
    "limescategory":"Kastell"
    }
  },
  {
    "type": "Feature",
    "geometry": {
       "type": "Point",
       "coordinates":  [ 7.471947,50.467026 ]
    },
    "properties": {
    "limestownpard":"Niederbieber-Segendorf",
    "limestown":"Neuwied",
    "limesobject":"Niederbieber",
    "ID":33,
    "limescategory":"Kastell"
    }
  },
  {
    "type": "Feature",
    "geometry": {
       "type": "Point",
       "coordinates":  [ 7.627335,50.368855 ]
    },
    "properties": {
    "limestownpard":"Niederberg",
    "limestown":"Koblenz",
    "limesobject":"Niederberg",
    "ID":34,
    "limescategory":"Kastell"
    }
  },
  {
    "type": "Feature",
    "geometry": {
       "type": "Point",
       "coordinates":  [ 7.717548,50.335923 ]
    },
    "properties": {
    "limestownpard":"",
    "limestown":"Bad Ems",
    "limesobject":"Bad Ems",
    "ID":35,
    "limescategory":"Kastell"
    }
  },
  {
    "type": "Feature",
    "geometry": {
       "type": "Point",
       "coordinates":  [ 7.745646,50.375325 ]
    },
    "properties": {
    "limestownpard":"",
    "limestown":"Arzbach",
    "limesobject":"Arzbach",
    "ID":36,
    "limescategory":"Kastell"
    }
  },
  {
    "type": "Feature",
    "geometry": {
       "type": "Point",
       "coordinates":  [ 7.810763,50.240273 ]
    },
    "properties": {
    "limestownpard":"",
    "limestown":"Marienfels",
    "limesobject":"Marienfels",
    "ID":37,
    "limescategory":"Kastell"
    }
  },
  {
    "type": "Feature",
    "geometry": {
       "type": "Point",
       "coordinates":  [ 7.827849,50.24665 ]
    },
    "properties": {
    "limestownpard":"",
    "limestown":"Hunzel",
    "limesobject":"Hunzel",
    "ID":38,
    "limescategory":"Kastell"
    }
  },
  {
    "type": "Feature",
    "geometry": {
       "type": "Point",
       "coordinates":  [ 7.947468,50.214881 ]
    },
    "properties": {
    "limestownpard":"",
    "limestown":"Holzhausen an der Haide",
    "limesobject":"Holzhausen",
    "ID":39,
    "limescategory":"Kastell"
    }
  },
  {
    "type": "Feature",
    "geometry": {
       "type": "Point",
       "coordinates":  [ 8.016058,50.165468 ]
    },
    "properties": {
    "limestownpard":"Kemel",
    "limestown":"Heidenrod",
    "limesobject":"Kemel",
    "ID":40,
    "limescategory":"Kastell"
    }
  },
  {
    "type": "Feature",
    "geometry": {
       "type": "Point",
       "coordinates":  [ 8.644794,50.365103 ]
    },
    "properties": {
    "limestownpard":"Langenhain-Ziegenberg",
    "limestown":"Ober-Mörlen",
    "limesobject":"Langenhain",
    "ID":41,
    "limescategory":"Kastell"
    }
  },
  {
    "type": "Feature",
    "geometry": {
       "type": "Point",
       "coordinates":  [ 8.665183,50.439681 ]
    },
    "properties": {
    "limestownpard":"",
    "limestown":"Butzbach",
    "limesobject":"Butzbach",
    "ID":42,
    "limescategory":"Kastell"
    }
  },
  {
    "type": "Feature",
    "geometry": {
       "type": "Point",
       "coordinates":  [ 8.876774,50.323804 ]
    },
    "properties": {
    "limestownpard":"Ober-Florstadt",
    "limestown":"Florstadt",
    "limesobject":"Ober-Florstadt",
    "ID":43,
    "limescategory":"Kastell"
    }
  },
  {
    "type": "Feature",
    "geometry": {
       "type": "Point",
       "coordinates":  [ 8.883176,50.393087 ]
    },
    "properties": {
    "limestownpard":"",
    "limestown":"Echzell",
    "limesobject":"Echzell",
    "ID":44,
    "limescategory":"Kastell"
    }
  },
  {
    "type": "Feature",
    "geometry": {
       "type": "Point",
       "coordinates":  [ 8.907951,50.460569 ]
    },
    "properties": {
    "limestownpard":"Inheiden",
    "limestown":"Hungen",
    "limesobject":"Hungen-Inheiden",
    "ID":45,
    "limescategory":"Kastell"
    }
  },
  {
    "type": "Feature",
    "geometry": {
       "type": "Point",
       "coordinates":  [ 8.941192,50.285161 ]
    },
    "properties": {
    "limestownpard":"",
    "limestown":"Altenstadt",
    "limesobject":"Altenstadt",
    "ID":46,
    "limescategory":"Kastell"
    }
  },
  {
    "type": "Feature",
    "geometry": {
       "type": "Point",
       "coordinates":  [ 8.976095,50.044011 ]
    },
    "properties": {
    "limestownpard":"",
    "limestown":"Seligenstadt",
    "limesobject":"Seligenstadt",
    "ID":47,
    "limescategory":"Kastell"
    }
  },
  {
    "type": "Feature",
    "geometry": {
       "type": "Point",
       "coordinates":  [ 8.981344,50.154728 ]
    },
    "properties": {
    "limestownpard":"Rückingen",
    "limestown":"Erlensee",
    "limesobject":"Rückingen",
    "ID":48,
    "limescategory":"Kastell"
    }
  },
  {
    "type": "Feature",
    "geometry": {
       "type": "Point",
       "coordinates":  [ 9.140716,49.91415 ]
    },
    "properties": {
    "limestownpard":"",
    "limestown":"Niedernberg",
    "limesobject":"Niedernberg",
    "ID":49,
    "limescategory":"Kastell"
    }
  },
  {
    "type": "Feature",
    "geometry": {
       "type": "Point",
       "coordinates":  [ 9.146593,49.841111 ]
    },
    "properties": {
    "limestownpard":"Stadt Obernburg",
    "limestown":"Obernburg",
    "limesobject":"Obernburg",
    "ID":50,
    "limescategory":"Kastell"
    }
  },
  {
    "type": "Feature",
    "geometry": {
       "type": "Point",
       "coordinates":  [ 9.177849,49.777844 ]
    },
    "properties": {
    "limestownpard":"Trennfurt",
    "limestown":"Klingenberg",
    "limesobject":"Trennfurt",
    "ID":51,
    "limescategory":"Kastell"
    }
  },
  {
    "type": "Feature",
    "geometry": {
       "type": "Point",
       "coordinates":  [ 9.229949,49.708882 ]
    },
    "properties": {
    "limestownpard":"",
    "limestown":"Miltenberg",
    "limesobject":"Miltenberg-Altstadt",
    "ID":52,
    "limescategory":"Kastell"
    }
  },
  {
    "type": "Feature",
    "geometry": {
       "type": "Point",
       "coordinates":  [ 9.261513,49.705317 ]
    },
    "properties": {
    "limestownpard":"",
    "limestown":"Miltenberg",
    "limesobject":"Miltenberg-Ost",
    "ID":53,
    "limescategory":"Kastell"
    }
  },
  {
    "type": "Feature",
    "geometry": {
       "type": "Point",
       "coordinates":  [ 9.386719,49.57857 ]
    },
    "properties": {
    "limestownpard":"",
    "limestown":"Walldürn",
    "limesobject":"Walldürn",
    "ID":54,
    "limescategory":"Kastell"
    }
  },
  {
    "type": "Feature",
    "geometry": {
       "type": "Point",
       "coordinates":  [ 9.50327,49.230773 ]
    },
    "properties": {
    "limestownpard":"Westernbach",
    "limestown":"Zweiflingen",
    "limesobject":"Westernbach",
    "ID":55,
    "limescategory":"Kastell"
    }
  },
  {
    "type": "Feature",
    "geometry": {
       "type": "Point",
       "coordinates":  [ 9.582358,48.977053 ]
    },
    "properties": {
    "limestownpard":"",
    "limestown":"Murrhardt",
    "limesobject":"Murrhardt",
    "ID":56,
    "limescategory":"Kastell"
    }
  },
  {
    "type": "Feature",
    "geometry": {
       "type": "Point",
       "coordinates":  [ 10.480547,49.046446 ]
    },
    "properties": {
    "limestownpard":"Frickenfelden",
    "limestown":"Weiltingen",
    "limesobject":"Ruffenhofen",
    "ID":57,
    "limescategory":"Kastell"
    }
  },
  {
    "type": "Feature",
    "geometry": {
       "type": "Point",
       "coordinates":  [ 10.62242,49.069528 ]
    },
    "properties": {
    "limestownpard":"Unterschwaningen",
    "limestown":"Unterschwaningen",
    "limesobject":"Unterschwaningen",
    "ID":58,
    "limescategory":"Kastell"
    }
  },
  {
    "type": "Feature",
    "geometry": {
       "type": "Point",
       "coordinates":  [ 10.84409,49.089237 ]
    },
    "properties": {
    "limestownpard":"",
    "limestown":"Theilenhofen",
    "limesobject":"Theilenhofen Erdkastell",
    "ID":59,
    "limescategory":"Kastell"
    }
  },
  {
    "type": "Feature",
    "geometry": {
       "type": "Point",
       "coordinates":  [ 10.847123,49.089432 ]
    },
    "properties": {
    "limestownpard":"",
    "limestown":"Theilenhofen",
    "limesobject":"Theilenhofen",
    "ID":60,
    "limescategory":"Kastell"
    }
  },
  {
    "type": "Feature",
    "geometry": {
       "type": "Point",
       "coordinates":  [ 11.053059,49.034459 ]
    },
    "properties": {
    "limestownpard":"Oberhochstatt",
    "limestown":"Weißenburg",
    "limesobject":"Oberhochstatt",
    "ID":61,
    "limescategory":"Kastell"
    }
  },
  {
    "type": "Feature",
    "geometry": {
       "type": "Point",
       "coordinates":  [ 11.079642,49.016608 ]
    },
    "properties": {
    "limestownpard":"",
    "limestown":"Burgsalach",
    "limesobject":"Burgsalach Erdkastell",
    "ID":62,
    "limescategory":"Kastell"
    }
  },
  {
    "type": "Feature",
    "geometry": {
       "type": "Point",
       "coordinates":  [ 7.538413,50.481347 ]
    },
    "properties": {
    "limestownpard":"Heimbach-Weis",
    "limestown":"Neuwied",
    "limesobject":"Anhausen",
    "ID":63,
    "limescategory":"Kleinkastell"
    }
  },
  {
    "type": "Feature",
    "geometry": {
       "type": "Point",
       "coordinates":  [ 7.704296,50.412622 ]
    },
    "properties": {
    "limestownpard":"",
    "limestown":"Hillscheid",
    "limesobject":"Hillscheid",
    "ID":64,
    "limescategory":"Kleinkastell"
    }
  },
  {
    "type": "Feature",
    "geometry": {
       "type": "Point",
       "coordinates":  [ 7.738396,50.28661 ]
    },
    "properties": {
    "limestownpard":"Oberlahnstein",
    "limestown":"Lahnstein",
    "limesobject":"Becheln",
    "ID":65,
    "limescategory":"Kleinkastell"
    }
  },
  {
    "type": "Feature",
    "geometry": {
       "type": "Point",
       "coordinates":  [ 7.890201,50.226566 ]
    },
    "properties": {
    "limestownpard":"",
    "limestown":"Miehlen",
    "limesobject":"Pfarrhofen",
    "ID":66,
    "limescategory":"Kleinkastell"
    }
  },
  {
    "type": "Feature",
    "geometry": {
       "type": "Point",
       "coordinates":  [ 7.995022,50.197474 ]
    },
    "properties": {
    "limestownpard":"Laufenselden",
    "limestown":"Heidenrod",
    "limesobject":"Dörsterberg",
    "ID":67,
    "limescategory":"Kleinkastell"
    }
  },
  {
    "type": "Feature",
    "geometry": {
       "type": "Point",
       "coordinates":  [ 8.316399,50.201068 ]
    },
    "properties": {
    "limestownpard":"Lenzhahn",
    "limestown":"Idstein",
    "limesobject":"Eichelgarten",
    "ID":68,
    "limescategory":"Kleinkastell"
    }
  },
  {
    "type": "Feature",
    "geometry": {
       "type": "Point",
       "coordinates":  [ 8.390579,50.218544 ]
    },
    "properties": {
    "limestownpard":"",
    "limestown":"Glashütten",
    "limesobject":"Maisel",
    "ID":69,
    "limescategory":"Kleinkastell"
    }
  },
  {
    "type": "Feature",
    "geometry": {
       "type": "Point",
       "coordinates":  [ 8.492966,50.244586 ]
    },
    "properties": {
    "limestownpard":"Oberstedten",
    "limestown":"Oberursel",
    "limesobject":"Altes Jagdhaus",
    "ID":70,
    "limescategory":"Kleinkastell"
    }
  },
  {
    "type": "Feature",
    "geometry": {
       "type": "Point",
       "coordinates":  [ 8.512934,50.253706 ]
    },
    "properties": {
    "limestownpard":"Ober-Eschbach",
    "limestown":"Bad Homburg",
    "limesobject":"Heidenstock",
    "ID":71,
    "limescategory":"Kleinkastell"
    }
  },
  {
    "type": "Feature",
    "geometry": {
       "type": "Point",
       "coordinates":  [ 8.568471,50.272769 ]
    },
    "properties": {
    "limestownpard":"",
    "limestown":"Bad Homburg",
    "limesobject":"Saalburg 1",
    "ID":72,
    "limescategory":"Kleinkastell"
    }
  },
  {
    "type": "Feature",
    "geometry": {
       "type": "Point",
       "coordinates":  [ 8.568939,50.27216 ]
    },
    "properties": {
    "limestownpard":"",
    "limestown":"Bad Homburg",
    "limesobject":"Saalburg 2",
    "ID":73,
    "limescategory":"Kleinkastell"
    }
  },
  {
    "type": "Feature",
    "geometry": {
       "type": "Point",
       "coordinates":  [ 8.586331,50.28213 ]
    },
    "properties": {
    "limestownpard":"Köppern",
    "limestown":"Friedrichsdorf",
    "limesobject":"Lochmühle",
    "ID":74,
    "limescategory":"Kleinkastell"
    }
  },
  {
    "type": "Feature",
    "geometry": {
       "type": "Point",
       "coordinates":  [ 8.62539,50.305565 ]
    },
    "properties": {
    "limestownpard":"Nieder-Rosbach",
    "limestown":"Rosbach",
    "limesobject":"Rittergräber",
    "ID":75,
    "limescategory":"Kleinkastell"
    }
  },
  {
    "type": "Feature",
    "geometry": {
       "type": "Point",
       "coordinates":  [ 8.6284,50.414587 ]
    },
    "properties": {
    "limestownpard":"Nieder-Weisel",
    "limestown":"Butzbach",
    "limesobject":"Hunnenkirchhof 1",
    "ID":76,
    "limescategory":"Kleinkastell"
    }
  },
  {
    "type": "Feature",
    "geometry": {
       "type": "Point",
       "coordinates":  [ 8.629062,50.41449 ]
    },
    "properties": {
    "limestownpard":"Nieder-Weisel",
    "limestown":"Butzbach",
    "limesobject":"Hunnenkirchhof 2",
    "ID":77,
    "limescategory":"Kleinkastell"
    }
  },
  {
    "type": "Feature",
    "geometry": {
       "type": "Point",
       "coordinates":  [ 8.638337,50.319621 ]
    },
    "properties": {
    "limestownpard":"Ockstadt",
    "limestown":"Friedberg",
    "limesobject":"Ockstädter Wald",
    "ID":78,
    "limescategory":"Kleinkastell"
    }
  },
  {
    "type": "Feature",
    "geometry": {
       "type": "Point",
       "coordinates":  [ 8.640278,50.356513 ]
    },
    "properties": {
    "limestownpard":"Langenhain-Ziegenberg",
    "limestown":"Ober-Mörlen",
    "limesobject":"Eichkopf",
    "ID":79,
    "limescategory":"Kleinkastell"
    }
  },
  {
    "type": "Feature",
    "geometry": {
       "type": "Point",
       "coordinates":  [ 8.64676,50.336998 ]
    },
    "properties": {
    "limestownpard":"",
    "limestown":"Ober-Mörlen",
    "limesobject":"Kaisergrube",
    "ID":80,
    "limescategory":"Kleinkastell"
    }
  },
  {
    "type": "Feature",
    "geometry": {
       "type": "Point",
       "coordinates":  [ 8.650381,50.432994 ]
    },
    "properties": {
    "limestownpard":"",
    "limestown":"Butzbach",
    "limesobject":"Schrenzer",
    "ID":81,
    "limescategory":"Kleinkastell"
    }
  },
  {
    "type": "Feature",
    "geometry": {
       "type": "Point",
       "coordinates":  [ 8.67608,50.470322 ]
    },
    "properties": {
    "limestownpard":"Gambach",
    "limestown":"Münzenberg",
    "limesobject":"Dicker Wald 2",
    "ID":82,
    "limescategory":"Kleinkastell"
    }
  },
  {
    "type": "Feature",
    "geometry": {
       "type": "Point",
       "coordinates":  [ 8.677771,50.466075 ]
    },
    "properties": {
    "limestownpard":"Gambach",
    "limestown":"Münzenberg",
    "limesobject":"Dicker Wald 1",
    "ID":83,
    "limescategory":"Kleinkastell"
    }
  },
  {
    "type": "Feature",
    "geometry": {
       "type": "Point",
       "coordinates":  [ 8.69936,50.499817 ]
    },
    "properties": {
    "limestownpard":"Holzheim",
    "limestown":"Pohlheim",
    "limesobject":"Holzheimer Unterwald",
    "ID":84,
    "limescategory":"Kleinkastell"
    }
  },
  {
    "type": "Feature",
    "geometry": {
       "type": "Point",
       "coordinates":  [ 8.873857,50.471082 ]
    },
    "properties": {
    "limestownpard":"Inheiden",
    "limestown":"Hungen",
    "limesobject":"Feldheimer Wald",
    "ID":85,
    "limescategory":"Kleinkastell"
    }
  },
  {
    "type": "Feature",
    "geometry": {
       "type": "Point",
       "coordinates":  [ 8.961192,50.260375 ]
    },
    "properties": {
    "limestownpard":"Höchst",
    "limestown":"Altenstadt",
    "limesobject":"Buchkopf",
    "ID":86,
    "limescategory":"Kleinkastell"
    }
  },
  {
    "type": "Feature",
    "geometry": {
       "type": "Point",
       "coordinates":  [ 8.982996,50.11126 ]
    },
    "properties": {
    "limestownpard":"Wolfgang",
    "limestown":"Hanau",
    "limesobject":"Neuwirtshaus",
    "ID":87,
    "limescategory":"Kleinkastell"
    }
  },
  {
    "type": "Feature",
    "geometry": {
       "type": "Point",
       "coordinates":  [ 9.330439,49.633402 ]
    },
    "properties": {
    "limestownpard":"Reinhardsachsen",
    "limestown":"Walldürn",
    "limesobject":"Haselburg",
    "ID":88,
    "limescategory":"Kleinkastell"
    }
  },
  {
    "type": "Feature",
    "geometry": {
       "type": "Point",
       "coordinates":  [ 9.387543,49.542873 ]
    },
    "properties": {
    "limestownpard":"Hettingen",
    "limestown":"Buchen",
    "limesobject":"Rehberg",
    "ID":89,
    "limescategory":"Kleinkastell"
    }
  },
  {
    "type": "Feature",
    "geometry": {
       "type": "Point",
       "coordinates":  [ 9.42348,49.449848 ]
    },
    "properties": {
    "limestownpard":"",
    "limestown":"Osterburken",
    "limesobject":"Hintere Kalbe",
    "ID":90,
    "limescategory":"Kleinkastell"
    }
  },
  {
    "type": "Feature",
    "geometry": {
       "type": "Point",
       "coordinates":  [ 9.571011,49.055125 ]
    },
    "properties": {
    "limestownpard":"",
    "limestown":"Mainhardt",
    "limesobject":"Hankertsmühle",
    "ID":91,
    "limescategory":"Kleinkastell"
    }
  },
  {
    "type": "Feature",
    "geometry": {
       "type": "Point",
       "coordinates":  [ 9.619291,48.925947 ]
    },
    "properties": {
    "limestownpard":"",
    "limestown":"Kaisersbach",
    "limesobject":"Ebnisee",
    "ID":92,
    "limescategory":"Kleinkastell"
    }
  },
  {
    "type": "Feature",
    "geometry": {
       "type": "Point",
       "coordinates":  [ 9.633845,48.88659 ]
    },
    "properties": {
    "limestownpard":"",
    "limestown":"Welzheim",
    "limesobject":"Rötelsee",
    "ID":93,
    "limescategory":"Kleinkastell"
    }
  },
  {
    "type": "Feature",
    "geometry": {
       "type": "Point",
       "coordinates":  [ 9.754924,48.797321 ]
    },
    "properties": {
    "limestownpard":"Großdeinbach",
    "limestown":"Schwäbisch Gmünd",
    "limesobject":"Kleindeinbach",
    "ID":94,
    "limescategory":"Kleinkastell"
    }
  },
  {
    "type": "Feature",
    "geometry": {
       "type": "Point",
       "coordinates":  [ 9.763711,48.791553 ]
    },
    "properties": {
    "limestownpard":"",
    "limestown":"Schwäbisch Gmünd",
    "limesobject":"Freimühle",
    "ID":95,
    "limescategory":"Kleinkastell"
    }
  },
  {
    "type": "Feature",
    "geometry": {
       "type": "Point",
       "coordinates":  [ 10.780904,49.116839 ]
    },
    "properties": {
    "limestownpard":"",
    "limestown":"Gunzenhausen",
    "limesobject":"Hinterer Schlossberg",
    "ID":96,
    "limescategory":"Kleinkastell"
    }
  },
  {
    "type": "Feature",
    "geometry": {
       "type": "Point",
       "coordinates":  [ 10.951999,49.0865 ]
    },
    "properties": {
    "limestownpard":"Sankt Veit",
    "limestown":"Pfofeld",
    "limesobject":"Gündersbach",
    "ID":97,
    "limescategory":"Kleinkastell"
    }
  },
  {
    "type": "Feature",
    "geometry": {
       "type": "Point",
       "coordinates":  [ 11.105936,49.015709 ]
    },
    "properties": {
    "limestownpard":"",
    "limestown":"Raitenbuch",
    "limesobject":"Raitenbuch",
    "ID":98,
    "limescategory":"Kleinkastell"
    }
  },
  {
    "type": "Feature",
    "geometry": {
       "type": "Point",
       "coordinates":  [ 11.1511,48.983454 ]
    },
    "properties": {
    "limestownpard":"Kaldorf",
    "limestown":"Titting",
    "limesobject":"Kaldorf",
    "ID":99,
    "limescategory":"Kleinkastell"
    }
  },
  {
    "type": "Feature",
    "geometry": {
       "type": "Point",
       "coordinates":  [ 11.265951,48.975256 ]
    },
    "properties": {
    "limestownpard":"Altdorf",
    "limestown":"Titting",
    "limesobject":"Biebig",
    "ID":100,
    "limescategory":"Kleinkastell"
    }
  },
  {
    "type": "Feature",
    "geometry": {
       "type": "Point",
       "coordinates":  [ 11.271316,48.975771 ]
    },
    "properties": {
    "limestownpard":"Altdorf",
    "limestown":"Titting",
    "limesobject":"Hegelohe",
    "ID":101,
    "limescategory":"Kleinkastell"
    }
  },
  {
    "type": "Feature",
    "geometry": {
       "type": "Point",
       "coordinates":  [ 11.539056,48.913671 ]
    },
    "properties": {
    "limestownpard":"Schambach",
    "limestown":"Altmannstein",
    "limesobject":"Güssgraben",
    "ID":102,
    "limescategory":"Kleinkastell"
    }
  },
  {
    "type": "Feature",
    "geometry": {
       "type": "Point",
       "coordinates":  [ 11.572464,48.905277 ]
    },
    "properties": {
    "limestownpard":"Steinsdorf",
    "limestown":"Altmannstein",
    "limesobject":"Hinterer Seeberg",
    "ID":103,
    "limescategory":"Kleinkastell"
    }
  },
  {
    "type": "Feature",
    "geometry": {
       "type": "Point",
       "coordinates":  [ 7.319315,50.503527 ]
    },
    "properties": {
    "limestownpard":"",
    "limestown":"Rheinbrohl",
    "limesobject":"Rheinbrohl",
    "ID":104,
    "limescategory":"Kleinkastell"
    }
  },
  {
    "type": "Feature",
    "geometry": {
       "type": "Point",
       "coordinates":  [ 7.65227,50.430389 ]
    },
    "properties": {
    "limestownpard":"",
    "limestown":"Weitersburg",
    "limesobject":"Ferbach",
    "ID":105,
    "limescategory":"Kleinkastell"
    }
  },
  {
    "type": "Feature",
    "geometry": {
       "type": "Point",
       "coordinates":  [ 7.868022,50.251174 ]
    },
    "properties": {
    "limestownpard":"",
    "limestown":"Pohl",
    "limesobject":"Pohl",
    "ID":106,
    "limescategory":"Kleinkastell"
    }
  },
  {
    "type": "Feature",
    "geometry": {
       "type": "Point",
       "coordinates":  [ 8.016199,50.167456 ]
    },
    "properties": {
    "limestownpard":"Kemel",
    "limestown":"Heidenrod",
    "limesobject":"Kemel 2",
    "ID":107,
    "limescategory":"Kleinkastell"
    }
  },
  {
    "type": "Feature",
    "geometry": {
       "type": "Point",
       "coordinates":  [ 8.016542,50.167774 ]
    },
    "properties": {
    "limestownpard":"Kemel",
    "limestown":"Heidenrod",
    "limesobject":"Kemel 1",
    "ID":108,
    "limescategory":"Kleinkastell"
    }
  },
  {
    "type": "Feature",
    "geometry": {
       "type": "Point",
       "coordinates":  [ 8.077694,50.16494 ]
    },
    "properties": {
    "limestownpard":"Adolfseck",
    "limestown":"Bad Schwalbach",
    "limesobject":"Adolfseck",
    "ID":109,
    "limescategory":"Kleinkastell"
    }
  },
  {
    "type": "Feature",
    "geometry": {
       "type": "Point",
       "coordinates":  [ 8.336425,50.21039 ]
    },
    "properties": {
    "limestownpard":"Heftrich",
    "limestown":"Idstein",
    "limesobject":"Alteburg-Heftrich 2",
    "ID":110,
    "limescategory":"Kleinkastell"
    }
  },
  {
    "type": "Feature",
    "geometry": {
       "type": "Point",
       "coordinates":  [ 8.339083,50.211682 ]
    },
    "properties": {
    "limestownpard":"Heftrich",
    "limestown":"Idstein",
    "limesobject":"Alteburg-Heftrich 1",
    "ID":111,
    "limescategory":"Kleinkastell"
    }
  },
  {
    "type": "Feature",
    "geometry": {
       "type": "Point",
       "coordinates":  [ 8.655724,50.443519 ]
    },
    "properties": {
    "limestownpard":"",
    "limestown":"Butzbach",
    "limesobject":"Degerfeld",
    "ID":112,
    "limescategory":"Kleinkastell"
    }
  },
  {
    "type": "Feature",
    "geometry": {
       "type": "Point",
       "coordinates":  [ 8.725101,50.52089 ]
    },
    "properties": {
    "limestownpard":"Grüningen",
    "limestown":"Pohlheim",
    "limesobject":"Hainhaus",
    "ID":113,
    "limescategory":"Kleinkastell"
    }
  },
  {
    "type": "Feature",
    "geometry": {
       "type": "Point",
       "coordinates":  [ 8.85455,50.482998 ]
    },
    "properties": {
    "limestownpard":"Bettenhausen",
    "limestown":"Lich",
    "limesobject":"Langsdorf",
    "ID":114,
    "limescategory":"Kleinkastell"
    }
  },
  {
    "type": "Feature",
    "geometry": {
       "type": "Point",
       "coordinates":  [ 8.89565,50.361023 ]
    },
    "properties": {
    "limestownpard":"Bingenheim",
    "limestown":"Echzell",
    "limesobject":"Lochberg",
    "ID":115,
    "limescategory":"Kleinkastell"
    }
  },
  {
    "type": "Feature",
    "geometry": {
       "type": "Point",
       "coordinates":  [ 8.901594,50.388546 ]
    },
    "properties": {
    "limestownpard":"Bisses",
    "limestown":"Echzell",
    "limesobject":"Haselheck",
    "ID":116,
    "limescategory":"Kleinkastell"
    }
  },
  {
    "type": "Feature",
    "geometry": {
       "type": "Point",
       "coordinates":  [ 8.903685,50.46017 ]
    },
    "properties": {
    "limestownpard":"Inheiden",
    "limestown":"Hungen",
    "limesobject":"Inheiden 1",
    "ID":117,
    "limescategory":"Kleinkastell"
    }
  },
  {
    "type": "Feature",
    "geometry": {
       "type": "Point",
       "coordinates":  [ 8.906795,50.461008 ]
    },
    "properties": {
    "limestownpard":"Inheiden",
    "limestown":"Hungen",
    "limesobject":"Inheiden 2",
    "ID":118,
    "limescategory":"Kleinkastell"
    }
  },
  {
    "type": "Feature",
    "geometry": {
       "type": "Point",
       "coordinates":  [ 8.908644,50.422543 ]
    },
    "properties": {
    "limestownpard":"Unter-Widdersheim",
    "limestown":"Nidda",
    "limesobject":"Unter-Widdersheim",
    "ID":119,
    "limescategory":"Kleinkastell"
    }
  },
  {
    "type": "Feature",
    "geometry": {
       "type": "Point",
       "coordinates":  [ 8.91015,50.451806 ]
    },
    "properties": {
    "limestownpard":"Steinheim",
    "limestown":"Hungen",
    "limesobject":"Wingertsberg",
    "ID":120,
    "limescategory":"Kleinkastell"
    }
  },
  {
    "type": "Feature",
    "geometry": {
       "type": "Point",
       "coordinates":  [ 8.915133,50.326418 ]
    },
    "properties": {
    "limestownpard":"Staden",
    "limestown":"Florstadt",
    "limesobject":"Staden",
    "ID":121,
    "limescategory":"Kleinkastell"
    }
  },
  {
    "type": "Feature",
    "geometry": {
       "type": "Point",
       "coordinates":  [ 8.91616,50.437561 ]
    },
    "properties": {
    "limestownpard":"Steinheim",
    "limestown":"Hungen",
    "limesobject":"Massohl",
    "ID":122,
    "limescategory":"Kleinkastell"
    }
  },
  {
    "type": "Feature",
    "geometry": {
       "type": "Point",
       "coordinates":  [ 8.923034,50.31257 ]
    },
    "properties": {
    "limestownpard":"Stammheim",
    "limestown":"Florstadt",
    "limesobject":"Stammheim",
    "ID":123,
    "limescategory":"Kleinkastell"
    }
  },
  {
    "type": "Feature",
    "geometry": {
       "type": "Point",
       "coordinates":  [ 8.985621,50.167989 ]
    },
    "properties": {
    "limestownpard":"Langendiebach",
    "limestown":"Erlensee",
    "limesobject":"Langendiebach",
    "ID":124,
    "limescategory":"Kleinkastell"
    }
  },
  {
    "type": "Feature",
    "geometry": {
       "type": "Point",
       "coordinates":  [ 9.383568,49.545215 ]
    },
    "properties": {
    "limestownpard":"Hettingen",
    "limestown":"Buchen",
    "limesobject":"Altheimer Straße",
    "ID":125,
    "limescategory":"Kleinkastell"
    }
  },
  {
    "type": "Feature",
    "geometry": {
       "type": "Point",
       "coordinates":  [ 9.395263,49.515019 ]
    },
    "properties": {
    "limestownpard":"Rinschheim",
    "limestown":"Buchen",
    "limesobject":"Holderbusch",
    "ID":126,
    "limescategory":"Kleinkastell"
    }
  },
  {
    "type": "Feature",
    "geometry": {
       "type": "Point",
       "coordinates":  [ 9.430446,49.43113 ]
    },
    "properties": {
    "limestownpard":"",
    "limestown":"Osterburken",
    "limesobject":"Salzberg",
    "ID":127,
    "limescategory":"Kleinkastell"
    }
  },
  {
    "type": "Feature",
    "geometry": {
       "type": "Point",
       "coordinates":  [ 9.457339,49.350652 ]
    },
    "properties": {
    "limestownpard":"Unterkessach",
    "limestown":"Widdern",
    "limesobject":"Lehnenwiesen",
    "ID":128,
    "limescategory":"Kleinkastell"
    }
  },
  {
    "type": "Feature",
    "geometry": {
       "type": "Point",
       "coordinates":  [ 9.47859,49.279712 ]
    },
    "properties": {
    "limestownpard":"Sindringen",
    "limestown":"Forchtenberg",
    "limesobject":"Sindringen",
    "ID":129,
    "limescategory":"Kleinkastell"
    }
  },
  {
    "type": "Feature",
    "geometry": {
       "type": "Point",
       "coordinates":  [ 9.561952,49.080419 ]
    },
    "properties": {
    "limestownpard":"",
    "limestown":"Mainhardt",
    "limesobject":"Herrenwiesen",
    "ID":130,
    "limescategory":"Kleinkastell"
    }
  },
  {
    "type": "Feature",
    "geometry": {
       "type": "Point",
       "coordinates":  [ 7.572206,50.456846 ]
    },
    "properties": {
    "limestownpard":"Heimbach-Weis",
    "limestown":"Neuwied",
    "limesobject":"Turm 1/48",
    "ID":131,
    "limescategory":"Turm"
    }
  },
  {
    "type": "Feature",
    "geometry": {
       "type": "Point",
       "coordinates":  [ 9.391709,49.535081 ]
    },
    "properties": {
    "limestownpard":"Hettingen",
    "limestown":"Buchen",
    "limesobject":"Turm 8/2",
    "ID":132,
    "limescategory":"Turm"
    }
  },
  {
    "type": "Feature",
    "geometry": {
       "type": "Point",
       "coordinates":  [ 9.370498,49.602099 ]
    },
    "properties": {
    "limestownpard":"Glashofen",
    "limestown":"Walldürn",
    "limesobject":"Turm 7/32",
    "ID":133,
    "limescategory":"Turm"
    }
  },
  {
    "type": "Feature",
    "geometry": {
       "type": "Point",
       "coordinates":  [ 9.366459,49.60579 ]
    },
    "properties": {
    "limestownpard":"Glashofen",
    "limestown":"Walldürn",
    "limesobject":"Turm 7/31",
    "ID":134,
    "limescategory":"Turm"
    }
  },
  {
    "type": "Feature",
    "geometry": {
       "type": "Point",
       "coordinates":  [ 9.366527,49.605682 ]
    },
    "properties": {
    "limestownpard":"Glashofen",
    "limestown":"Walldürn",
    "limesobject":"Turm 7/31",
    "ID":135,
    "limescategory":"Turm"
    }
  },
  {
    "type": "Feature",
    "geometry": {
       "type": "Point",
       "coordinates":  [ 9.373822,49.598888 ]
    },
    "properties": {
    "limestownpard":"",
    "limestown":"Walldürn",
    "limesobject":"Turm 7/33",
    "ID":136,
    "limescategory":"Turm"
    }
  },
  {
    "type": "Feature",
    "geometry": {
       "type": "Point",
       "coordinates":  [ 9.379879,49.593294 ]
    },
    "properties": {
    "limestownpard":"",
    "limestown":"Walldürn",
    "limesobject":"Turm 7/35",
    "ID":137,
    "limescategory":"Turm"
    }
  },
  {
    "type": "Feature",
    "geometry": {
       "type": "Point",
       "coordinates":  [ 9.386347,49.548856 ]
    },
    "properties": {
    "limestownpard":"Hettingen",
    "limestown":"Buchen",
    "limesobject":"Turm 7/48",
    "ID":138,
    "limescategory":"Turm"
    }
  },
  {
    "type": "Feature",
    "geometry": {
       "type": "Point",
       "coordinates":  [ 9.407142,49.493695 ]
    },
    "properties": {
    "limestownpard":"Götzingen",
    "limestown":"Buchen",
    "limesobject":"Turm 8/13",
    "ID":139,
    "limescategory":"Turm"
    }
  },
  {
    "type": "Feature",
    "geometry": {
       "type": "Point",
       "coordinates":  [ 9.38949,49.541041 ]
    },
    "properties": {
    "limestownpard":"Hettingen",
    "limestown":"Buchen",
    "limesobject":"Turm 8/1",
    "ID":140,
    "limescategory":"Turm"
    }
  },
  {
    "type": "Feature",
    "geometry": {
       "type": "Point",
       "coordinates":  [ 9.404929,49.499799 ]
    },
    "properties": {
    "limestownpard":"Götzingen",
    "limestown":"Buchen",
    "limesobject":"Turm 8/11",
    "ID":141,
    "limescategory":"Turm"
    }
  },
  {
    "type": "Feature",
    "geometry": {
       "type": "Point",
       "coordinates":  [ 9.418193,49.46393 ]
    },
    "properties": {
    "limestownpard":"Bofsheim",
    "limestown":"Osterburken",
    "limesobject":"Turm 8/21",
    "ID":142,
    "limescategory":"Turm"
    }
  },
  {
    "type": "Feature",
    "geometry": {
       "type": "Point",
       "coordinates":  [ 9.420891,49.45679 ]
    },
    "properties": {
    "limestownpard":"Bofsheim",
    "limestown":"Osterburken",
    "limesobject":"Turm 8/23",
    "ID":143,
    "limescategory":"Turm"
    }
  },
  {
    "type": "Feature",
    "geometry": {
       "type": "Point",
       "coordinates":  [ 9.442196,49.399382 ]
    },
    "properties": {
    "limestownpard":"",
    "limestown":"Adelsheim",
    "limesobject":"Turm 8/37",
    "ID":144,
    "limescategory":"Turm"
    }
  },
  {
    "type": "Feature",
    "geometry": {
       "type": "Point",
       "coordinates":  [ 9.44502,49.391791 ]
    },
    "properties": {
    "limestownpard":"",
    "limestown":"Adelsheim",
    "limesobject":"Turm 8/39",
    "ID":145,
    "limescategory":"Turm"
    }
  },
  {
    "type": "Feature",
    "geometry": {
       "type": "Point",
       "coordinates":  [ 9.462791,49.344938 ]
    },
    "properties": {
    "limestownpard":"Unterkessach",
    "limestown":"Widdern",
    "limesobject":"Turm 8/51",
    "ID":146,
    "limescategory":"Turm"
    }
  },
  {
    "type": "Feature",
    "geometry": {
       "type": "Point",
       "coordinates":  [ 9.459084,49.354799 ]
    },
    "properties": {
    "limestownpard":"Unterkessach",
    "limestown":"Widdern",
    "limesobject":"Turm 8/48",
    "ID":147,
    "limescategory":"Turm"
    }
  },
  {
    "type": "Feature",
    "geometry": {
       "type": "Point",
       "coordinates":  [ 9.461515,49.348324 ]
    },
    "properties": {
    "limestownpard":"",
    "limestown":"Schöntal",
    "limesobject":"Turm 8/50",
    "ID":148,
    "limescategory":"Turm"
    }
  },
  {
    "type": "Feature",
    "geometry": {
       "type": "Point",
       "coordinates":  [ 9.490966,49.270659 ]
    },
    "properties": {
    "limestownpard":"Sindringen",
    "limestown":"Forchtenberg",
    "limesobject":"Turm 9/15",
    "ID":149,
    "limescategory":"Turm"
    }
  },
  {
    "type": "Feature",
    "geometry": {
       "type": "Point",
       "coordinates":  [ 9.489802,49.273856 ]
    },
    "properties": {
    "limestownpard":"Sindringen",
    "limestown":"Forchtenberg",
    "limesobject":"Turm 9/14",
    "ID":150,
    "limescategory":"Turm"
    }
  },
  {
    "type": "Feature",
    "geometry": {
       "type": "Point",
       "coordinates":  [ 9.493308,49.264463 ]
    },
    "properties": {
    "limestownpard":"",
    "limestown":"Zweiflingen",
    "limesobject":"Turm 9/17",
    "ID":151,
    "limescategory":"Turm"
    }
  },
  {
    "type": "Feature",
    "geometry": {
       "type": "Point",
       "coordinates":  [ 9.492064,49.267786 ]
    },
    "properties": {
    "limestownpard":"",
    "limestown":"Zweiflingen",
    "limesobject":"Turm 9/16",
    "ID":152,
    "limescategory":"Turm"
    }
  },
  {
    "type": "Feature",
    "geometry": {
       "type": "Point",
       "coordinates":  [ 9.494258,49.261905 ]
    },
    "properties": {
    "limestownpard":"",
    "limestown":"Zweiflingen",
    "limesobject":"Turm 9/18",
    "ID":153,
    "limescategory":"Turm"
    }
  },
  {
    "type": "Feature",
    "geometry": {
       "type": "Point",
       "coordinates":  [ 9.513671,49.210262 ]
    },
    "properties": {
    "limestownpard":"Büttelborn",
    "limestown":"Öhringen",
    "limesobject":"Turm 9/33",
    "ID":154,
    "limescategory":"Turm"
    }
  },
  {
    "type": "Feature",
    "geometry": {
       "type": "Point",
       "coordinates":  [ 9.645824,48.854277 ]
    },
    "properties": {
    "limestownpard":"",
    "limestown":"Welzheim",
    "limesobject":"Turm 9/136",
    "ID":155,
    "limescategory":"Turm"
    }
  },
  {
    "type": "Feature",
    "geometry": {
       "type": "Point",
       "coordinates":  [ 9.537864,49.145402 ]
    },
    "properties": {
    "limestownpard":"",
    "limestown":"Pfedelbach",
    "limesobject":"Turm 9/51",
    "ID":156,
    "limescategory":"Turm"
    }
  },
  {
    "type": "Feature",
    "geometry": {
       "type": "Point",
       "coordinates":  [ 9.618458,48.929207 ]
    },
    "properties": {
    "limestownpard":"",
    "limestown":"Kaisersbach",
    "limesobject":"Turm 9/116",
    "ID":157,
    "limescategory":"Turm"
    }
  },
  {
    "type": "Feature",
    "geometry": {
       "type": "Point",
       "coordinates":  [ 9.551858,49.108352 ]
    },
    "properties": {
    "limestownpard":"Geißelhardt",
    "limestown":"Mainhardt",
    "limesobject":"Turm 9/62",
    "ID":158,
    "limescategory":"Turm"
    }
  },
  {
    "type": "Feature",
    "geometry": {
       "type": "Point",
       "coordinates":  [ 9.536631,49.141613 ]
    },
    "properties": {
    "limestownpard":"",
    "limestown":"Pfedelbach",
    "limesobject":"Turm 9/52",
    "ID":159,
    "limescategory":"Turm"
    }
  },
  {
    "type": "Feature",
    "geometry": {
       "type": "Point",
       "coordinates":  [ 9.534781,49.139149 ]
    },
    "properties": {
    "limestownpard":"",
    "limestown":"Pfedelbach",
    "limesobject":"Turm 9/53",
    "ID":160,
    "limescategory":"Turm"
    }
  },
  {
    "type": "Feature",
    "geometry": {
       "type": "Point",
       "coordinates":  [ 9.552669,49.1061 ]
    },
    "properties": {
    "limestownpard":"Geißelhardt",
    "limestown":"Mainhardt",
    "limesobject":"Turm 9/63",
    "ID":161,
    "limescategory":"Turm"
    }
  },
  {
    "type": "Feature",
    "geometry": {
       "type": "Point",
       "coordinates":  [ 9.554119,49.102254 ]
    },
    "properties": {
    "limestownpard":"",
    "limestown":"Mainhardt",
    "limesobject":"Turm 9/64",
    "ID":162,
    "limescategory":"Turm"
    }
  },
  {
    "type": "Feature",
    "geometry": {
       "type": "Point",
       "coordinates":  [ 9.54579,49.124566 ]
    },
    "properties": {
    "limestownpard":"Geißelhardt",
    "limestown":"Mainhardt",
    "limesobject":"Turm 9/57",
    "ID":163,
    "limescategory":"Turm"
    }
  },
  {
    "type": "Feature",
    "geometry": {
       "type": "Point",
       "coordinates":  [ 9.57242,49.052717 ]
    },
    "properties": {
    "limestownpard":"Hütten",
    "limestown":"Mainhardt",
    "limesobject":"Turm 9/77",
    "ID":164,
    "limescategory":"Turm"
    }
  },
  {
    "type": "Feature",
    "geometry": {
       "type": "Point",
       "coordinates":  [ 9.569931,49.059941 ]
    },
    "properties": {
    "limestownpard":"Hütten",
    "limestown":"Mainhardt",
    "limesobject":"Turm 9/75",
    "ID":165,
    "limescategory":"Turm"
    }
  },
  {
    "type": "Feature",
    "geometry": {
       "type": "Point",
       "coordinates":  [ 9.566609,49.068689 ]
    },
    "properties": {
    "limestownpard":"Hütten",
    "limestown":"Mainhardt",
    "limesobject":"Turm 9/72",
    "ID":166,
    "limescategory":"Turm"
    }
  },
  {
    "type": "Feature",
    "geometry": {
       "type": "Point",
       "coordinates":  [ 9.580637,49.031059 ]
    },
    "properties": {
    "limestownpard":"Grab",
    "limestown":"Großerlach",
    "limesobject":"Turm 9/83",
    "ID":167,
    "limescategory":"Turm"
    }
  },
  {
    "type": "Feature",
    "geometry": {
       "type": "Point",
       "coordinates":  [ 9.60607,48.963317 ]
    },
    "properties": {
    "limestownpard":"",
    "limestown":"Murrhardt",
    "limesobject":"Turm 9/104",
    "ID":168,
    "limescategory":"Turm"
    }
  },
  {
    "type": "Feature",
    "geometry": {
       "type": "Point",
       "coordinates":  [ 9.696853,48.80587 ]
    },
    "properties": {
    "limestownpard":"",
    "limestown":"Lorch",
    "limesobject":"Turm 12/12",
    "ID":169,
    "limescategory":"Turm"
    }
  },
  {
    "type": "Feature",
    "geometry": {
       "type": "Point",
       "coordinates":  [ 9.727215,48.800449 ]
    },
    "properties": {
    "limestownpard":"",
    "limestown":"Lorch",
    "limesobject":"Turm 12/17",
    "ID":170,
    "limescategory":"Turm"
    }
  },
  {
    "type": "Feature",
    "geometry": {
       "type": "Point",
       "coordinates":  [ 9.700598,48.803024 ]
    },
    "properties": {
    "limestownpard":"",
    "limestown":"Lorch",
    "limesobject":"Turm 12/13",
    "ID":171,
    "limescategory":"Turm"
    }
  },
  {
    "type": "Feature",
    "geometry": {
       "type": "Point",
       "coordinates":  [ 9.690886,48.811517 ]
    },
    "properties": {
    "limestownpard":"",
    "limestown":"Lorch",
    "limesobject":"Turm 12/11",
    "ID":172,
    "limescategory":"Turm"
    }
  },
  {
    "type": "Feature",
    "geometry": {
       "type": "Point",
       "coordinates":  [ 9.60382,48.969228 ]
    },
    "properties": {
    "limestownpard":"",
    "limestown":"Murrhardt",
    "limesobject":"Turm 9/102",
    "ID":173,
    "limescategory":"Turm"
    }
  },
  {
    "type": "Feature",
    "geometry": {
       "type": "Point",
       "coordinates":  [ 9.609662,48.953254 ]
    },
    "properties": {
    "limestownpard":"Fornsbach",
    "limestown":"Murrhardt",
    "limesobject":"Turm 9/107",
    "ID":174,
    "limescategory":"Turm"
    }
  },
  {
    "type": "Feature",
    "geometry": {
       "type": "Point",
       "coordinates":  [ 9.59764,48.98585 ]
    },
    "properties": {
    "limestownpard":"",
    "limestown":"Murrhardt",
    "limesobject":"Turm 9/96a",
    "ID":175,
    "limescategory":"Turm"
    }
  },
  {
    "type": "Feature",
    "geometry": {
       "type": "Point",
       "coordinates":  [ 9.42343,49.45046 ]
    },
    "properties": {
    "limestownpard":"",
    "limestown":"Osterburken",
    "limesobject":"Turm 8/25",
    "ID":176,
    "limescategory":"Turm"
    }
  },
  {
    "type": "Feature",
    "geometry": {
       "type": "Point",
       "coordinates":  [ 9.438362,49.40979 ]
    },
    "properties": {
    "limestownpard":"",
    "limestown":"Osterburken",
    "limesobject":"Turm 8/34",
    "ID":177,
    "limescategory":"Turm"
    }
  },
  {
    "type": "Feature",
    "geometry": {
       "type": "Point",
       "coordinates":  [ 9.340004,49.627404 ]
    },
    "properties": {
    "limestownpard":"Gerolzahn",
    "limestown":"Walldürn",
    "limesobject":"Turm 7/24",
    "ID":178,
    "limescategory":"Turm"
    }
  },
  {
    "type": "Feature",
    "geometry": {
       "type": "Point",
       "coordinates":  [ 9.686903,48.826891 ]
    },
    "properties": {
    "limestownpard":"Pfahlbronn",
    "limestown":"Alfdorf",
    "limesobject":"Turm 12/8",
    "ID":179,
    "limescategory":"Turm"
    }
  },
  {
    "type": "Feature",
    "geometry": {
       "type": "Point",
       "coordinates":  [ 9.665355,48.842224 ]
    },
    "properties": {
    "limestownpard":"Pfahlbronn",
    "limestown":"Alfdorf",
    "limesobject":"Turm 12/3",
    "ID":180,
    "limescategory":"Turm"
    }
  },
  {
    "type": "Feature",
    "geometry": {
       "type": "Point",
       "coordinates":  [ 9.68484,48.831472 ]
    },
    "properties": {
    "limestownpard":"Pfahlbronn",
    "limestown":"Alfdorf",
    "limesobject":"Turm 12/7",
    "ID":181,
    "limescategory":"Turm"
    }
  },
  {
    "type": "Feature",
    "geometry": {
       "type": "Point",
       "coordinates":  [ 9.687085,48.822313 ]
    },
    "properties": {
    "limestownpard":"",
    "limestown":"Lorch",
    "limesobject":"Turm 12/9",
    "ID":182,
    "limescategory":"Turm"
    }
  },
  {
    "type": "Feature",
    "geometry": {
       "type": "Point",
       "coordinates":  [ 10.112935,48.905496 ]
    },
    "properties": {
    "limestownpard":"",
    "limestown":"Hüttlingen",
    "limesobject":"Turm 12/74",
    "ID":183,
    "limescategory":"Turm"
    }
  },
  {
    "type": "Feature",
    "geometry": {
       "type": "Point",
       "coordinates":  [ 10.131004,48.916102 ]
    },
    "properties": {
    "limestownpard":"Schwabsberg",
    "limestown":"Rainau",
    "limesobject":"Turm 12/77",
    "ID":184,
    "limescategory":"Turm"
    }
  },
  {
    "type": "Feature",
    "geometry": {
       "type": "Point",
       "coordinates":  [ 9.949229,48.838455 ]
    },
    "properties": {
    "limestownpard":"",
    "limestown":"Mögglingen",
    "limesobject":"Turm 12/46",
    "ID":185,
    "limescategory":"Turm"
    }
  },
  {
    "type": "Feature",
    "geometry": {
       "type": "Point",
       "coordinates":  [ 9.943406,48.837379 ]
    },
    "properties": {
    "limestownpard":"",
    "limestown":"Heuchlingen",
    "limesobject":"Turm 12/45",
    "ID":186,
    "limescategory":"Turm"
    }
  },
  {
    "type": "Feature",
    "geometry": {
       "type": "Point",
       "coordinates":  [ 9.736219,48.798063 ]
    },
    "properties": {
    "limestownpard":"Großdeinbach",
    "limestown":"Schwäbisch Gmünd",
    "limesobject":"Turm 12/19",
    "ID":187,
    "limescategory":"Turm"
    }
  },
  {
    "type": "Feature",
    "geometry": {
       "type": "Point",
       "coordinates":  [ 8.984587,50.121158 ]
    },
    "properties": {
    "limestownpard":"Wolfgang",
    "limestown":"Hanau",
    "limesobject":"Turm 5/12",
    "ID":188,
    "limescategory":"Turm"
    }
  },
  {
    "type": "Feature",
    "geometry": {
       "type": "Point",
       "coordinates":  [ 9.599542,48.980373 ]
    },
    "properties": {
    "limestownpard":"",
    "limestown":"Murrhardt",
    "limesobject":"Turm 9/99",
    "ID":189,
    "limescategory":"Turm"
    }
  },
  {
    "type": "Feature",
    "geometry": {
       "type": "Point",
       "coordinates":  [ 9.627557,48.90495 ]
    },
    "properties": {
    "limestownpard":"",
    "limestown":"Welzheim",
    "limesobject":"Turm 9/123",
    "ID":190,
    "limescategory":"Turm"
    }
  },
  {
    "type": "Feature",
    "geometry": {
       "type": "Point",
       "coordinates":  [ 9.642876,48.861352 ]
    },
    "properties": {
    "limestownpard":"",
    "limestown":"Welzheim",
    "limesobject":"Turm 9/134",
    "ID":191,
    "limescategory":"Turm"
    }
  },
  {
    "type": "Feature",
    "geometry": {
       "type": "Point",
       "coordinates":  [ 9.613046,48.944118 ]
    },
    "properties": {
    "limestownpard":"Fornsbach",
    "limestown":"Murrhardt",
    "limesobject":"Turm 9/111",
    "ID":192,
    "limescategory":"Turm"
    }
  },
  {
    "type": "Feature",
    "geometry": {
       "type": "Point",
       "coordinates":  [ 9.5921,49.000275 ]
    },
    "properties": {
    "limestownpard":"",
    "limestown":"Murrhardt",
    "limesobject":"Turm 9/91",
    "ID":193,
    "limescategory":"Turm"
    }
  },
  {
    "type": "Feature",
    "geometry": {
       "type": "Point",
       "coordinates":  [ 9.599292,48.981166 ]
    },
    "properties": {
    "limestownpard":"",
    "limestown":"Murrhardt",
    "limesobject":"Turm 9/98",
    "ID":194,
    "limescategory":"Turm"
    }
  },
  {
    "type": "Feature",
    "geometry": {
       "type": "Point",
       "coordinates":  [ 9.585344,49.01851 ]
    },
    "properties": {
    "limestownpard":"",
    "limestown":"Murrhardt",
    "limesobject":"Turm 9/87",
    "ID":195,
    "limescategory":"Turm"
    }
  },
  {
    "type": "Feature",
    "geometry": {
       "type": "Point",
       "coordinates":  [ 9.597544,48.985833 ]
    },
    "properties": {
    "limestownpard":"",
    "limestown":"Murrhardt",
    "limesobject":"Turm 9/96b",
    "ID":196,
    "limescategory":"Turm"
    }
  },
  {
    "type": "Feature",
    "geometry": {
       "type": "Point",
       "coordinates":  [ 8.982498,50.098161 ]
    },
    "properties": {
    "limestownpard":"Großauheim",
    "limestown":"Hanau",
    "limesobject":"Turm 5/15",
    "ID":197,
    "limescategory":"Turm"
    }
  },
  {
    "type": "Feature",
    "geometry": {
       "type": "Point",
       "coordinates":  [ 8.985171,50.129618 ]
    },
    "properties": {
    "limestownpard":"Wolfgang",
    "limestown":"Hanau",
    "limesobject":"Turm 5/11",
    "ID":198,
    "limescategory":"Turm"
    }
  },
  {
    "type": "Feature",
    "geometry": {
       "type": "Point",
       "coordinates":  [ 8.414309,50.221255 ]
    },
    "properties": {
    "limestownpard":"",
    "limestown":"Glashütten",
    "limesobject":"Turm 3/42",
    "ID":199,
    "limescategory":"Turm"
    }
  },
  {
    "type": "Feature",
    "geometry": {
       "type": "Point",
       "coordinates":  [ 8.22717,50.191096 ]
    },
    "properties": {
    "limestownpard":"Orlen",
    "limestown":"Idstein",
    "limesobject":"Turm 3/18",
    "ID":200,
    "limescategory":"Turm"
    }
  },
  {
    "type": "Feature",
    "geometry": {
       "type": "Point",
       "coordinates":  [ 8.982124,50.088694 ]
    },
    "properties": {
    "limestownpard":"",
    "limestown":"Großkrotzenburg",
    "limesobject":"Turm 5/16",
    "ID":201,
    "limescategory":"Turm"
    }
  },
  {
    "type": "Feature",
    "geometry": {
       "type": "Point",
       "coordinates":  [ 8.219777,50.1919 ]
    },
    "properties": {
    "limestownpard":"Orlen",
    "limestown":"Taunusstein",
    "limesobject":"Turm 3/17a",
    "ID":202,
    "limescategory":"Turm"
    }
  },
  {
    "type": "Feature",
    "geometry": {
       "type": "Point",
       "coordinates":  [ 8.38342,50.217364 ]
    },
    "properties": {
    "limestownpard":"Schlossborn",
    "limestown":"Glashütten",
    "limesobject":"Turm 3/38",
    "ID":203,
    "limescategory":"Turm"
    }
  },
  {
    "type": "Feature",
    "geometry": {
       "type": "Point",
       "coordinates":  [ 8.236256,50.1921 ]
    },
    "properties": {
    "limestownpard":"Eschenhahn",
    "limestown":"Idstein",
    "limesobject":"Turm 3/19",
    "ID":204,
    "limescategory":"Turm"
    }
  },
  {
    "type": "Feature",
    "geometry": {
       "type": "Point",
       "coordinates":  [ 8.383433,50.212015 ]
    },
    "properties": {
    "limestownpard":"Schlossborn",
    "limestown":"Glashütten",
    "limesobject":"Turm 3/38",
    "ID":205,
    "limescategory":"Turm"
    }
  },
  {
    "type": "Feature",
    "geometry": {
       "type": "Point",
       "coordinates":  [ 8.64802,50.434461 ]
    },
    "properties": {
    "limestownpard":"",
    "limestown":"Butzbach",
    "limesobject":"Turm 4/33",
    "ID":206,
    "limescategory":"Turm"
    }
  },
  {
    "type": "Feature",
    "geometry": {
       "type": "Point",
       "coordinates":  [ 8.63814,50.319773 ]
    },
    "properties": {
    "limestownpard":"Ockstadt",
    "limestown":"Friedberg",
    "limesobject":"Turm 4/11",
    "ID":207,
    "limescategory":"Turm"
    }
  },
  {
    "type": "Feature",
    "geometry": {
       "type": "Point",
       "coordinates":  [ 8.414756,50.221383 ]
    },
    "properties": {
    "limestownpard":"",
    "limestown":"Glashütten",
    "limesobject":"Turm 3/42",
    "ID":208,
    "limescategory":"Turm"
    }
  },
  {
    "type": "Feature",
    "geometry": {
       "type": "Point",
       "coordinates":  [ 8.638211,50.319621 ]
    },
    "properties": {
    "limestownpard":"Ockstadt",
    "limestown":"Friedberg",
    "limesobject":"Turm 4/11",
    "ID":209,
    "limescategory":"Turm"
    }
  },
  {
    "type": "Feature",
    "geometry": {
       "type": "Point",
       "coordinates":  [ 7.716128,50.300122 ]
    },
    "properties": {
    "limestownpard":"Oberlahnstein",
    "limestown":"Lahnstein",
    "limesobject":"Turm unknown",
    "ID":210,
    "limescategory":"Turm"
    }
  },
  {
    "type": "Feature",
    "geometry": {
       "type": "Point",
       "coordinates":  [ 7.727689,50.292418 ]
    },
    "properties": {
    "limestownpard":"",
    "limestown":"Becheln",
    "limesobject":"Turm 2/6",
    "ID":211,
    "limescategory":"Turm"
    }
  },
  {
    "type": "Feature",
    "geometry": {
       "type": "Point",
       "coordinates":  [ 7.743897,50.284449 ]
    },
    "properties": {
    "limestownpard":"Oberlahnstein",
    "limestown":"Lahnstein",
    "limesobject":"Turm 2/8",
    "ID":212,
    "limescategory":"Turm"
    }
  },
  {
    "type": "Feature",
    "geometry": {
       "type": "Point",
       "coordinates":  [ 7.667107,50.423314 ]
    },
    "properties": {
    "limestownpard":"",
    "limestown":"Vallendar",
    "limesobject":"Turm 1/65",
    "ID":213,
    "limescategory":"Turm"
    }
  },
  {
    "type": "Feature",
    "geometry": {
       "type": "Point",
       "coordinates":  [ 7.852128,50.249131 ]
    },
    "properties": {
    "limestownpard":"",
    "limestown":"Pohl",
    "limesobject":"Turm 2/21",
    "ID":214,
    "limescategory":"Turm"
    }
  },
  {
    "type": "Feature",
    "geometry": {
       "type": "Point",
       "coordinates":  [ 7.942638,50.214055 ]
    },
    "properties": {
    "limestownpard":"",
    "limestown":"Holzhausen an der Haide",
    "limesobject":"Turm 2/34",
    "ID":215,
    "limescategory":"Turm"
    }
  },
  {
    "type": "Feature",
    "geometry": {
       "type": "Point",
       "coordinates":  [ 7.852353,50.249133 ]
    },
    "properties": {
    "limestownpard":"",
    "limestown":"Pohl",
    "limesobject":"Turm unknown",
    "ID":216,
    "limescategory":"Turm"
    }
  },
  {
    "type": "Feature",
    "geometry": {
       "type": "Point",
       "coordinates":  [ 7.93451,50.210384 ]
    },
    "properties": {
    "limestownpard":"",
    "limestown":"Holzhausen an der Haide",
    "limesobject":"Turm 2/33",
    "ID":217,
    "limescategory":"Turm"
    }
  },
  {
    "type": "Feature",
    "geometry": {
       "type": "Point",
       "coordinates":  [ 7.789333,50.263894 ]
    },
    "properties": {
    "limestownpard":"",
    "limestown":"Geisig",
    "limesobject":"Turm 2/14",
    "ID":218,
    "limescategory":"Turm"
    }
  },
  {
    "type": "Feature",
    "geometry": {
       "type": "Point",
       "coordinates":  [ 7.770989,50.273123 ]
    },
    "properties": {
    "limestownpard":"",
    "limestown":"Oberwies",
    "limesobject":"Turm 2/12",
    "ID":219,
    "limescategory":"Turm"
    }
  },
  {
    "type": "Feature",
    "geometry": {
       "type": "Point",
       "coordinates":  [ 7.781272,50.269815 ]
    },
    "properties": {
    "limestownpard":"",
    "limestown":"Dornholzhausen",
    "limesobject":"Turm 2/13",
    "ID":220,
    "limescategory":"Turm"
    }
  },
  {
    "type": "Feature",
    "geometry": {
       "type": "Point",
       "coordinates":  [ 7.379915,50.499873 ]
    },
    "properties": {
    "limestownpard":"",
    "limestown":"Rheinbrohl",
    "limesobject":"Turm 1/12",
    "ID":221,
    "limescategory":"Turm"
    }
  },
  {
    "type": "Feature",
    "geometry": {
       "type": "Point",
       "coordinates":  [ 7.404528,50.482232 ]
    },
    "properties": {
    "limestownpard":"Wollendorf",
    "limestown":"Neuwied",
    "limesobject":"Turm 1/18",
    "ID":222,
    "limescategory":"Turm"
    }
  },
  {
    "type": "Feature",
    "geometry": {
       "type": "Point",
       "coordinates":  [ 7.723476,50.397308 ]
    },
    "properties": {
    "limestownpard":"",
    "limestown":"Eitelborn",
    "limesobject":"Turm 1/75",
    "ID":223,
    "limescategory":"Turm"
    }
  },
  {
    "type": "Feature",
    "geometry": {
       "type": "Point",
       "coordinates":  [ 7.716865,50.403061 ]
    },
    "properties": {
    "limestownpard":"",
    "limestown":"Hillscheid",
    "limesobject":"Turm 1/73",
    "ID":224,
    "limescategory":"Turm"
    }
  },
  {
    "type": "Feature",
    "geometry": {
       "type": "Point",
       "coordinates":  [ 7.727518,50.292489 ]
    },
    "properties": {
    "limestownpard":"",
    "limestown":"Becheln",
    "limesobject":"Turm unknown",
    "ID":225,
    "limescategory":"Turm"
    }
  },
  {
    "type": "Feature",
    "geometry": {
       "type": "Point",
       "coordinates":  [ 7.733169,50.289503 ]
    },
    "properties": {
    "limestownpard":"",
    "limestown":"Becheln",
    "limesobject":"Turm 2/7",
    "ID":226,
    "limescategory":"Turm"
    }
  },
  {
    "type": "Feature",
    "geometry": {
       "type": "Point",
       "coordinates":  [ 7.716067,50.300319 ]
    },
    "properties": {
    "limestownpard":"Oberlahnstein",
    "limestown":"Lahnstein",
    "limesobject":"Turm 2/4",
    "ID":227,
    "limescategory":"Turm"
    }
  },
  {
    "type": "Feature",
    "geometry": {
       "type": "Point",
       "coordinates":  [ 7.681538,50.417985 ]
    },
    "properties": {
    "limestownpard":"",
    "limestown":"Hillscheid",
    "limesobject":"Turm 1/67",
    "ID":228,
    "limescategory":"Turm"
    }
  },
  {
    "type": "Feature",
    "geometry": {
       "type": "Point",
       "coordinates":  [ 7.740672,50.396443 ]
    },
    "properties": {
    "limestownpard":"",
    "limestown":"Kadenbach",
    "limesobject":"Turm 1/78",
    "ID":229,
    "limescategory":"Turm"
    }
  },
  {
    "type": "Feature",
    "geometry": {
       "type": "Point",
       "coordinates":  [ 7.889206,50.233776 ]
    },
    "properties": {
    "limestownpard":"",
    "limestown":"Obertiefenbach",
    "limesobject":"Turm 2/27",
    "ID":230,
    "limescategory":"Turm"
    }
  },
  {
    "type": "Feature",
    "geometry": {
       "type": "Point",
       "coordinates":  [ 7.480037,50.478747 ]
    },
    "properties": {
    "limestownpard":"Altwied",
    "limestown":"Neuwied",
    "limesobject":"Turm 1/33",
    "ID":231,
    "limescategory":"Turm"
    }
  },
  {
    "type": "Feature",
    "geometry": {
       "type": "Point",
       "coordinates":  [ 7.712611,50.407437 ]
    },
    "properties": {
    "limestownpard":"",
    "limestown":"Hillscheid",
    "limesobject":"Turm 1/72",
    "ID":232,
    "limescategory":"Turm"
    }
  },
  {
    "type": "Feature",
    "geometry": {
       "type": "Point",
       "coordinates":  [ 7.585967,50.44307 ]
    },
    "properties": {
    "limestownpard":"Sayn",
    "limestown":"Bendorf",
    "limesobject":"Turm 1/52",
    "ID":233,
    "limescategory":"Turm"
    }
  },
  {
    "type": "Feature",
    "geometry": {
       "type": "Point",
       "coordinates":  [ 7.889161,50.233901 ]
    },
    "properties": {
    "limestownpard":"",
    "limestown":"Obertiefenbach",
    "limesobject":"Turm 2/27",
    "ID":234,
    "limescategory":"Turm"
    }
  },
  {
    "type": "Feature",
    "geometry": {
       "type": "Point",
       "coordinates":  [ 7.876156,50.243971 ]
    },
    "properties": {
    "limestownpard":"",
    "limestown":"Pohl",
    "limesobject":"Turm 2/25",
    "ID":235,
    "limescategory":"Turm"
    }
  },
  {
    "type": "Feature",
    "geometry": {
       "type": "Point",
       "coordinates":  [ 7.876028,50.244051 ]
    },
    "properties": {
    "limestownpard":"",
    "limestown":"Pohl",
    "limesobject":"Turm 2/25",
    "ID":236,
    "limescategory":"Turm"
    }
  },
  {
    "type": "Feature",
    "geometry": {
       "type": "Point",
       "coordinates":  [ 7.760611,50.358323 ]
    },
    "properties": {
    "limestownpard":"",
    "limestown":"Kemmenau",
    "limesobject":"Turm 1/88",
    "ID":237,
    "limescategory":"Turm"
    }
  },
  {
    "type": "Feature",
    "geometry": {
       "type": "Point",
       "coordinates":  [ 7.714007,50.304342 ]
    },
    "properties": {
    "limestownpard":"Oberlahnstein",
    "limestown":"Lahnstein",
    "limesobject":"Turm 2/3",
    "ID":238,
    "limescategory":"Turm"
    }
  },
  {
    "type": "Feature",
    "geometry": {
       "type": "Point",
       "coordinates":  [ 7.386518,50.494723 ]
    },
    "properties": {
    "limestownpard":"Niederhammerstein",
    "limestown":"Hammerstein",
    "limesobject":"Turm 1/13",
    "ID":239,
    "limescategory":"Turm"
    }
  },
  {
    "type": "Feature",
    "geometry": {
       "type": "Point",
       "coordinates":  [ 7.392843,50.494397 ]
    },
    "properties": {
    "limestownpard":"Oberhammerstein",
    "limestown":"Hammerstein",
    "limesobject":"Turm 1/14",
    "ID":240,
    "limescategory":"Turm"
    }
  },
  {
    "type": "Feature",
    "geometry": {
       "type": "Point",
       "coordinates":  [ 7.737043,50.337706 ]
    },
    "properties": {
    "limestownpard":"",
    "limestown":"Bad Ems",
    "limesobject":"Turm 1/92",
    "ID":241,
    "limescategory":"Turm"
    }
  },
  {
    "type": "Feature",
    "geometry": {
       "type": "Point",
       "coordinates":  [ 7.722124,50.315202 ]
    },
    "properties": {
    "limestownpard":"Oberlahnstein",
    "limestown":"Lahnstein",
    "limesobject":"Turm 2/2",
    "ID":242,
    "limescategory":"Turm"
    }
  },
  {
    "type": "Feature",
    "geometry": {
       "type": "Point",
       "coordinates":  [ 7.744012,50.284361 ]
    },
    "properties": {
    "limestownpard":"Oberlahnstein",
    "limestown":"Lahnstein",
    "limesobject":"Turm 2/8",
    "ID":243,
    "limescategory":"Turm"
    }
  },
  {
    "type": "Feature",
    "geometry": {
       "type": "Point",
       "coordinates":  [ 7.64031,50.437146 ]
    },
    "properties": {
    "limestownpard":"",
    "limestown":"Bendorf",
    "limesobject":"Turm 1/60",
    "ID":244,
    "limescategory":"Turm"
    }
  },
  {
    "type": "Feature",
    "geometry": {
       "type": "Point",
       "coordinates":  [ 7.3427,50.513239 ]
    },
    "properties": {
    "limestownpard":"",
    "limestown":"Rheinbrohl",
    "limesobject":"Turm 1/5",
    "ID":245,
    "limescategory":"Turm"
    }
  },
  {
    "type": "Feature",
    "geometry": {
       "type": "Point",
       "coordinates":  [ 7.356187,50.513817 ]
    },
    "properties": {
    "limestownpard":"",
    "limestown":"Rheinbrohl",
    "limesobject":"Turm 1/7",
    "ID":246,
    "limescategory":"Turm"
    }
  },
  {
    "type": "Feature",
    "geometry": {
       "type": "Point",
       "coordinates":  [ 7.640206,50.43736 ]
    },
    "properties": {
    "limestownpard":"",
    "limestown":"Bendorf",
    "limesobject":"Turm 1/60",
    "ID":247,
    "limescategory":"Turm"
    }
  },
  {
    "type": "Feature",
    "geometry": {
       "type": "Point",
       "coordinates":  [ 7.365572,50.513176 ]
    },
    "properties": {
    "limestownpard":"",
    "limestown":"Rheinbrohl",
    "limesobject":"Turm 1/8",
    "ID":248,
    "limescategory":"Turm"
    }
  },
  {
    "type": "Feature",
    "geometry": {
       "type": "Point",
       "coordinates":  [ 7.375723,50.510306 ]
    },
    "properties": {
    "limestownpard":"",
    "limestown":"Rheinbrohl",
    "limesobject":"Turm 1/10",
    "ID":249,
    "limescategory":"Turm"
    }
  },
  {
    "type": "Feature",
    "geometry": {
       "type": "Point",
       "coordinates":  [ 7.365729,50.513106 ]
    },
    "properties": {
    "limestownpard":"",
    "limestown":"Rheinbrohl",
    "limesobject":"Turm 1/8",
    "ID":250,
    "limescategory":"Turm"
    }
  },
  {
    "type": "Feature",
    "geometry": {
       "type": "Point",
       "coordinates":  [ 7.376839,50.504064 ]
    },
    "properties": {
    "limestownpard":"",
    "limestown":"Rheinbrohl",
    "limesobject":"Turm 1/11",
    "ID":251,
    "limescategory":"Turm"
    }
  },
  {
    "type": "Feature",
    "geometry": {
       "type": "Point",
       "coordinates":  [ 7.517794,50.478353 ]
    },
    "properties": {
    "limestownpard":"Gladbach",
    "limestown":"Neuwied",
    "limesobject":"Turm 1/38",
    "ID":252,
    "limescategory":"Turm"
    }
  },
  {
    "type": "Feature",
    "geometry": {
       "type": "Point",
       "coordinates":  [ 7.62207,50.437524 ]
    },
    "properties": {
    "limestownpard":"Bendorf",
    "limestown":"Bendorf",
    "limesobject":"Turm 1/58",
    "ID":253,
    "limescategory":"Turm"
    }
  },
  {
    "type": "Feature",
    "geometry": {
       "type": "Point",
       "coordinates":  [ 7.386307,50.494711 ]
    },
    "properties": {
    "limestownpard":"Niederhammerstein",
    "limestown":"Hammerstein",
    "limesobject":"Turm 1/13",
    "ID":254,
    "limescategory":"Turm"
    }
  },
  {
    "type": "Feature",
    "geometry": {
       "type": "Point",
       "coordinates":  [ 7.632809,50.438074 ]
    },
    "properties": {
    "limestownpard":"Bendorf",
    "limestown":"Bendorf",
    "limesobject":"Turm 1/59",
    "ID":255,
    "limescategory":"Turm"
    }
  },
  {
    "type": "Feature",
    "geometry": {
       "type": "Point",
       "coordinates":  [ 7.622814,50.437605 ]
    },
    "properties": {
    "limestownpard":"Bendorf",
    "limestown":"Bendorf",
    "limesobject":"Turm 1/58",
    "ID":256,
    "limescategory":"Turm"
    }
  },
  {
    "type": "Feature",
    "geometry": {
       "type": "Point",
       "coordinates":  [ 7.371635,50.511508 ]
    },
    "properties": {
    "limestownpard":"",
    "limestown":"Rheinbrohl",
    "limesobject":"Turm 1/9",
    "ID":257,
    "limescategory":"Turm"
    }
  },
  {
    "type": "Feature",
    "geometry": {
       "type": "Point",
       "coordinates":  [ 7.633232,50.438061 ]
    },
    "properties": {
    "limestownpard":"Bendorf",
    "limestown":"Bendorf",
    "limesobject":"Turm 1/59",
    "ID":258,
    "limescategory":"Turm"
    }
  },
  {
    "type": "Feature",
    "geometry": {
       "type": "Point",
       "coordinates":  [ 7.632632,50.438359 ]
    },
    "properties": {
    "limestownpard":"Bendorf",
    "limestown":"Bendorf",
    "limesobject":"Turm 1/59",
    "ID":259,
    "limescategory":"Turm"
    }
  },
  {
    "type": "Feature",
    "geometry": {
       "type": "Point",
       "coordinates":  [ 7.633062,50.438077 ]
    },
    "properties": {
    "limestownpard":"Bendorf",
    "limestown":"Bendorf",
    "limesobject":"Turm 1/59",
    "ID":260,
    "limescategory":"Turm"
    }
  },
  {
    "type": "Feature",
    "geometry": {
       "type": "Point",
       "coordinates":  [ 7.605178,50.442331 ]
    },
    "properties": {
    "limestownpard":"Sayn",
    "limestown":"Bendorf",
    "limesobject":"Turm 1/55",
    "ID":261,
    "limescategory":"Turm"
    }
  },
  {
    "type": "Feature",
    "geometry": {
       "type": "Point",
       "coordinates":  [ 7.613275,50.442257 ]
    },
    "properties": {
    "limestownpard":"Sayn",
    "limestown":"Bendorf",
    "limesobject":"Turm 1/56",
    "ID":262,
    "limescategory":"Turm"
    }
  },
  {
    "type": "Feature",
    "geometry": {
       "type": "Point",
       "coordinates":  [ 7.598108,50.441922 ]
    },
    "properties": {
    "limestownpard":"Sayn",
    "limestown":"Bendorf",
    "limesobject":"Turm 1/54",
    "ID":263,
    "limescategory":"Turm"
    }
  },
  {
    "type": "Feature",
    "geometry": {
       "type": "Point",
       "coordinates":  [ 7.622923,50.437723 ]
    },
    "properties": {
    "limestownpard":"Bendorf",
    "limestown":"Bendorf",
    "limesobject":"Turm 1/58",
    "ID":264,
    "limescategory":"Turm"
    }
  },
  {
    "type": "Feature",
    "geometry": {
       "type": "Point",
       "coordinates":  [ 7.398725,50.491331 ]
    },
    "properties": {
    "limestownpard":"",
    "limestown":"Leutesdorf",
    "limesobject":"Turm 1/16",
    "ID":265,
    "limescategory":"Turm"
    }
  },
  {
    "type": "Feature",
    "geometry": {
       "type": "Point",
       "coordinates":  [ 7.399585,50.487172 ]
    },
    "properties": {
    "limestownpard":"Wollendorf",
    "limestown":"Neuwied",
    "limesobject":"Turm 1/17",
    "ID":266,
    "limescategory":"Turm"
    }
  },
  {
    "type": "Feature",
    "geometry": {
       "type": "Point",
       "coordinates":  [ 7.39949,50.487054 ]
    },
    "properties": {
    "limestownpard":"Wollendorf",
    "limestown":"Neuwied",
    "limesobject":"Turm 1/17",
    "ID":267,
    "limescategory":"Turm"
    }
  },
  {
    "type": "Feature",
    "geometry": {
       "type": "Point",
       "coordinates":  [ 7.568462,50.464226 ]
    },
    "properties": {
    "limestownpard":"Heimbach-Weis",
    "limestown":"Neuwied",
    "limesobject":"Turm 1/47",
    "ID":268,
    "limescategory":"Turm"
    }
  },
  {
    "type": "Feature",
    "geometry": {
       "type": "Point",
       "coordinates":  [ 7.419203,50.466834 ]
    },
    "properties": {
    "limestownpard":"Wollendorf",
    "limestown":"Neuwied",
    "limesobject":"Turm 1/22",
    "ID":269,
    "limescategory":"Turm"
    }
  },
  {
    "type": "Feature",
    "geometry": {
       "type": "Point",
       "coordinates":  [ 7.425539,50.466066 ]
    },
    "properties": {
    "limestownpard":"Wollendorf",
    "limestown":"Neuwied",
    "limesobject":"Turm 1/23",
    "ID":270,
    "limescategory":"Turm"
    }
  },
  {
    "type": "Feature",
    "geometry": {
       "type": "Point",
       "coordinates":  [ 7.41971,50.466832 ]
    },
    "properties": {
    "limestownpard":"Wollendorf",
    "limestown":"Neuwied",
    "limesobject":"Turm 1/22",
    "ID":271,
    "limescategory":"Turm"
    }
  },
  {
    "type": "Feature",
    "geometry": {
       "type": "Point",
       "coordinates":  [ 7.404331,50.48222 ]
    },
    "properties": {
    "limestownpard":"Wollendorf",
    "limestown":"Neuwied",
    "limesobject":"Turm 1/18",
    "ID":272,
    "limescategory":"Turm"
    }
  },
  {
    "type": "Feature",
    "geometry": {
       "type": "Point",
       "coordinates":  [ 7.407396,50.472777 ]
    },
    "properties": {
    "limestownpard":"Gönnersdorf",
    "limestown":"Neuwied",
    "limesobject":"Turm 1/20",
    "ID":273,
    "limescategory":"Turm"
    }
  },
  {
    "type": "Feature",
    "geometry": {
       "type": "Point",
       "coordinates":  [ 7.406102,50.476509 ]
    },
    "properties": {
    "limestownpard":"Hüllenberg",
    "limestown":"Neuwied",
    "limesobject":"Turm 1/19",
    "ID":274,
    "limescategory":"Turm"
    }
  },
  {
    "type": "Feature",
    "geometry": {
       "type": "Point",
       "coordinates":  [ 7.509515,50.477762 ]
    },
    "properties": {
    "limestownpard":"Oberbieber",
    "limestown":"Neuwied",
    "limesobject":"Turm 1/37",
    "ID":275,
    "limescategory":"Turm"
    }
  },
  {
    "type": "Feature",
    "geometry": {
       "type": "Point",
       "coordinates":  [ 7.538169,50.481955 ]
    },
    "properties": {
    "limestownpard":"Heimbach-Weis",
    "limestown":"Neuwied",
    "limesobject":"Turm 1/41",
    "ID":276,
    "limescategory":"Turm"
    }
  },
  {
    "type": "Feature",
    "geometry": {
       "type": "Point",
       "coordinates":  [ 7.531443,50.481206 ]
    },
    "properties": {
    "limestownpard":"Gladbach",
    "limestown":"Neuwied",
    "limesobject":"Turm 1/40",
    "ID":277,
    "limescategory":"Turm"
    }
  },
  {
    "type": "Feature",
    "geometry": {
       "type": "Point",
       "coordinates":  [ 7.543274,50.478127 ]
    },
    "properties": {
    "limestownpard":"Heimbach-Weis",
    "limestown":"Neuwied",
    "limesobject":"Turm 1/42",
    "ID":278,
    "limescategory":"Turm"
    }
  },
  {
    "type": "Feature",
    "geometry": {
       "type": "Point",
       "coordinates":  [ 7.523188,50.479321 ]
    },
    "properties": {
    "limestownpard":"Gladbach",
    "limestown":"Neuwied",
    "limesobject":"Turm 1/39",
    "ID":279,
    "limescategory":"Turm"
    }
  },
  {
    "type": "Feature",
    "geometry": {
       "type": "Point",
       "coordinates":  [ 7.549849,50.474586 ]
    },
    "properties": {
    "limestownpard":"Heimbach-Weis",
    "limestown":"Neuwied",
    "limesobject":"Turm 1/43",
    "ID":280,
    "limescategory":"Turm"
    }
  },
  {
    "type": "Feature",
    "geometry": {
       "type": "Point",
       "coordinates":  [ 7.550147,50.474536 ]
    },
    "properties": {
    "limestownpard":"Heimbach-Weis",
    "limestown":"Neuwied",
    "limesobject":"Turm 1/43",
    "ID":281,
    "limescategory":"Turm"
    }
  },
  {
    "type": "Feature",
    "geometry": {
       "type": "Point",
       "coordinates":  [ 7.560009,50.47357 ]
    },
    "properties": {
    "limestownpard":"Heimbach-Weis",
    "limestown":"Neuwied",
    "limesobject":"Turm 1/44",
    "ID":282,
    "limescategory":"Turm"
    }
  },
  {
    "type": "Feature",
    "geometry": {
       "type": "Point",
       "coordinates":  [ 8.68791,50.485637 ]
    },
    "properties": {
    "limestownpard":"Gambach",
    "limestown":"Münzenberg",
    "limesobject":"Turm 4/44",
    "ID":283,
    "limescategory":"Turm"
    }
  },
  {
    "type": "Feature",
    "geometry": {
       "type": "Point",
       "coordinates":  [ 7.967899,50.206271 ]
    },
    "properties": {
    "limestownpard":"Laufenselden",
    "limestown":"Heidenrod",
    "limesobject":"Turm 2/39",
    "ID":284,
    "limescategory":"Turm"
    }
  },
  {
    "type": "Feature",
    "geometry": {
       "type": "Point",
       "coordinates":  [ 7.572085,50.456664 ]
    },
    "properties": {
    "limestownpard":"Heimbach-Weis",
    "limestown":"Neuwied",
    "limesobject":"Turm 1/48",
    "ID":285,
    "limescategory":"Turm"
    }
  },
  {
    "type": "Feature",
    "geometry": {
       "type": "Point",
       "coordinates":  [ 7.568976,50.463531 ]
    },
    "properties": {
    "limestownpard":"Heimbach-Weis",
    "limestown":"Neuwied",
    "limesobject":"Turm 1/47",
    "ID":286,
    "limescategory":"Turm"
    }
  },
  {
    "type": "Feature",
    "geometry": {
       "type": "Point",
       "coordinates":  [ 7.572252,50.456711 ]
    },
    "properties": {
    "limestownpard":"Heimbach-Weis",
    "limestown":"Neuwied",
    "limesobject":"Turm 1/48",
    "ID":287,
    "limescategory":"Turm"
    }
  },
  {
    "type": "Feature",
    "geometry": {
       "type": "Point",
       "coordinates":  [ 8.07096,50.165722 ]
    },
    "properties": {
    "limestownpard":"Lindschied",
    "limestown":"Bad Schwalbach",
    "limesobject":"Turm 2/55",
    "ID":288,
    "limescategory":"Turm"
    }
  },
  {
    "type": "Feature",
    "geometry": {
       "type": "Point",
       "coordinates":  [ 8.323489,50.205829 ]
    },
    "properties": {
    "limestownpard":"Heftrich",
    "limestown":"Idstein",
    "limesobject":"Turm 3/31",
    "ID":289,
    "limescategory":"Turm"
    }
  },
  {
    "type": "Feature",
    "geometry": {
       "type": "Point",
       "coordinates":  [ 8.643485,50.339109 ]
    },
    "properties": {
    "limestownpard":"",
    "limestown":"Ober-Mörlen",
    "limesobject":"Turm 4/16",
    "ID":290,
    "limescategory":"Turm"
    }
  },
  {
    "type": "Feature",
    "geometry": {
       "type": "Point",
       "coordinates":  [ 8.975156,50.241455 ]
    },
    "properties": {
    "limestownpard":"Langen-Bergheim",
    "limestown":"Hammersbach",
    "limesobject":"Turm 4/105",
    "ID":291,
    "limescategory":"Turm"
    }
  },
  {
    "type": "Feature",
    "geometry": {
       "type": "Point",
       "coordinates":  [ 7.964954,50.214831 ]
    },
    "properties": {
    "limestownpard":"Laufenselden",
    "limestown":"Heidenrod",
    "limesobject":"Turm 2/36",
    "ID":292,
    "limescategory":"Turm"
    }
  },
  {
    "type": "Feature",
    "geometry": {
       "type": "Point",
       "coordinates":  [ 8.00931,50.179103 ]
    },
    "properties": {
    "limestownpard":"Huppert",
    "limestown":"Heidenrod",
    "limesobject":"Turm 2/47",
    "ID":293,
    "limescategory":"Turm"
    }
  },
  {
    "type": "Feature",
    "geometry": {
       "type": "Point",
       "coordinates":  [ 8.114237,50.169531 ]
    },
    "properties": {
    "limestownpard":"Watzhahn",
    "limestown":"Taunusstein",
    "limesobject":"Turm 3/5",
    "ID":294,
    "limescategory":"Turm"
    }
  },
  {
    "type": "Feature",
    "geometry": {
       "type": "Point",
       "coordinates":  [ 7.967268,50.209547 ]
    },
    "properties": {
    "limestownpard":"Laufenselden",
    "limestown":"Heidenrod",
    "limesobject":"Turm 2/38",
    "ID":295,
    "limescategory":"Turm"
    }
  },
  {
    "type": "Feature",
    "geometry": {
       "type": "Point",
       "coordinates":  [ 7.9664,50.212749 ]
    },
    "properties": {
    "limestownpard":"Laufenselden",
    "limestown":"Heidenrod",
    "limesobject":"Turm 2/37",
    "ID":296,
    "limescategory":"Turm"
    }
  },
  {
    "type": "Feature",
    "geometry": {
       "type": "Point",
       "coordinates":  [ 7.95557,50.21597 ]
    },
    "properties": {
    "limestownpard":"Laufenselden",
    "limestown":"Heidenrod",
    "limesobject":"Turm 2/35",
    "ID":297,
    "limescategory":"Turm"
    }
  },
  {
    "type": "Feature",
    "geometry": {
       "type": "Point",
       "coordinates":  [ 7.973298,50.203406 ]
    },
    "properties": {
    "limestownpard":"Laufenselden",
    "limestown":"Heidenrod",
    "limesobject":"Turm 2/40",
    "ID":298,
    "limescategory":"Turm"
    }
  },
  {
    "type": "Feature",
    "geometry": {
       "type": "Point",
       "coordinates":  [ 8.702673,50.504195 ]
    },
    "properties": {
    "limestownpard":"Grüningen",
    "limestown":"Pohlheim",
    "limesobject":"Turm 4/47",
    "ID":299,
    "limescategory":"Turm"
    }
  },
  {
    "type": "Feature",
    "geometry": {
       "type": "Point",
       "coordinates":  [ 8.260732,50.195045 ]
    },
    "properties": {
    "limestownpard":"",
    "limestown":"Idstein",
    "limesobject":"Turm 3/23",
    "ID":300,
    "limescategory":"Turm"
    }
  },
  {
    "type": "Feature",
    "geometry": {
       "type": "Point",
       "coordinates":  [ 8.111851,50.17212 ]
    },
    "properties": {
    "limestownpard":"Watzhahn",
    "limestown":"Taunusstein",
    "limesobject":"Turm 3/5",
    "ID":301,
    "limescategory":"Turm"
    }
  },
  {
    "type": "Feature",
    "geometry": {
       "type": "Point",
       "coordinates":  [ 8.012899,50.173434 ]
    },
    "properties": {
    "limestownpard":"Kemel",
    "limestown":"Heidenrod",
    "limesobject":"Turm 2/48",
    "ID":302,
    "limescategory":"Turm"
    }
  },
  {
    "type": "Feature",
    "geometry": {
       "type": "Point",
       "coordinates":  [ 8.103562,50.170006 ]
    },
    "properties": {
    "limestownpard":"Born",
    "limestown":"Hohenstein",
    "limesobject":"Turm 3/4",
    "ID":303,
    "limescategory":"Turm"
    }
  },
  {
    "type": "Feature",
    "geometry": {
       "type": "Point",
       "coordinates":  [ 7.989518,50.198801 ]
    },
    "properties": {
    "limestownpard":"Laufenselden",
    "limestown":"Heidenrod",
    "limesobject":"Turm 2/42",
    "ID":304,
    "limescategory":"Turm"
    }
  },
  {
    "type": "Feature",
    "geometry": {
       "type": "Point",
       "coordinates":  [ 8.046827,50.16238 ]
    },
    "properties": {
    "limestownpard":"Lindschied",
    "limestown":"Bad Schwalbach",
    "limesobject":"Turm 2/52",
    "ID":305,
    "limescategory":"Turm"
    }
  },
  {
    "type": "Feature",
    "geometry": {
       "type": "Point",
       "coordinates":  [ 8.104188,50.165732 ]
    },
    "properties": {
    "limestownpard":"Born",
    "limestown":"Hohenstein",
    "limesobject":"Turm 3/4",
    "ID":306,
    "limescategory":"Turm"
    }
  },
  {
    "type": "Feature",
    "geometry": {
       "type": "Point",
       "coordinates":  [ 8.103948,50.165811 ]
    },
    "properties": {
    "limestownpard":"Born",
    "limestown":"Hohenstein",
    "limesobject":"Turm 3/4",
    "ID":307,
    "limescategory":"Turm"
    }
  },
  {
    "type": "Feature",
    "geometry": {
       "type": "Point",
       "coordinates":  [ 8.114642,50.169561 ]
    },
    "properties": {
    "limestownpard":"Watzhahn",
    "limestown":"Taunusstein",
    "limesobject":"Turm 3/5",
    "ID":308,
    "limescategory":"Turm"
    }
  },
  {
    "type": "Feature",
    "geometry": {
       "type": "Point",
       "coordinates":  [ 8.172802,50.184104 ]
    },
    "properties": {
    "limestownpard":"Orlen",
    "limestown":"Taunusstein",
    "limesobject":"Turm 3/11",
    "ID":309,
    "limescategory":"Turm"
    }
  },
  {
    "type": "Feature",
    "geometry": {
       "type": "Point",
       "coordinates":  [ 8.258061,50.194785 ]
    },
    "properties": {
    "limestownpard":"",
    "limestown":"Idstein",
    "limesobject":"Turm 3/22",
    "ID":310,
    "limescategory":"Turm"
    }
  },
  {
    "type": "Feature",
    "geometry": {
       "type": "Point",
       "coordinates":  [ 8.117633,50.173593 ]
    },
    "properties": {
    "limestownpard":"Steckenroth",
    "limestown":"Hohenstein",
    "limesobject":"Turm 3/6",
    "ID":311,
    "limescategory":"Turm"
    }
  },
  {
    "type": "Feature",
    "geometry": {
       "type": "Point",
       "coordinates":  [ 8.246099,50.193135 ]
    },
    "properties": {
    "limestownpard":"Eschenhahn",
    "limestown":"Idstein",
    "limesobject":"Turm 3/20",
    "ID":312,
    "limescategory":"Turm"
    }
  },
  {
    "type": "Feature",
    "geometry": {
       "type": "Point",
       "coordinates":  [ 8.162794,50.182351 ]
    },
    "properties": {
    "limestownpard":"Steckenroth",
    "limestown":"Hohenstein",
    "limesobject":"Turm 3/10",
    "ID":313,
    "limescategory":"Turm"
    }
  },
  {
    "type": "Feature",
    "geometry": {
       "type": "Point",
       "coordinates":  [ 8.198192,50.192176 ]
    },
    "properties": {
    "limestownpard":"Orlen",
    "limestown":"Taunusstein",
    "limesobject":"Turm 3/14",
    "ID":314,
    "limescategory":"Turm"
    }
  },
  {
    "type": "Feature",
    "geometry": {
       "type": "Point",
       "coordinates":  [ 8.745231,50.519452 ]
    },
    "properties": {
    "limestownpard":"Grüningen",
    "limestown":"Pohlheim",
    "limesobject":"Turm 4/52",
    "ID":315,
    "limescategory":"Turm"
    }
  },
  {
    "type": "Feature",
    "geometry": {
       "type": "Point",
       "coordinates":  [ 8.352331,50.214139 ]
    },
    "properties": {
    "limestownpard":"Heftrich",
    "limestown":"Idstein",
    "limesobject":"Turm 3/35",
    "ID":316,
    "limescategory":"Turm"
    }
  },
  {
    "type": "Feature",
    "geometry": {
       "type": "Point",
       "coordinates":  [ 8.273885,50.196683 ]
    },
    "properties": {
    "limestownpard":"",
    "limestown":"Idstein",
    "limesobject":"Turm 3/25",
    "ID":317,
    "limescategory":"Turm"
    }
  },
  {
    "type": "Feature",
    "geometry": {
       "type": "Point",
       "coordinates":  [ 8.796338,50.429206 ]
    },
    "properties": {
    "limestownpard":"",
    "limestown":"Wolfersheim",
    "limesobject":"Turm",
    "ID":318,
    "limescategory":"Turm"
    }
  },
  {
    "type": "Feature",
    "geometry": {
       "type": "Point",
       "coordinates":  [ 8.250332,50.193801 ]
    },
    "properties": {
    "limestownpard":"Eschenhahn",
    "limestown":"Idstein",
    "limesobject":"Turm 3/21",
    "ID":319,
    "limescategory":"Turm"
    }
  },
  {
    "type": "Feature",
    "geometry": {
       "type": "Point",
       "coordinates":  [ 8.726605,50.365261 ]
    },
    "properties": {
    "limestownpard":"",
    "limestown":"",
    "limesobject":"Stadt/Gemeinde:",
    "ID":320,
    "limescategory":"Turm"
    }
  },
  {
    "type": "Feature",
    "geometry": {
       "type": "Point",
       "coordinates":  [ 8.314354,50.202027 ]
    },
    "properties": {
    "limestownpard":"Dasbach",
    "limestown":"Idstein",
    "limesobject":"Turm 3/29",
    "ID":321,
    "limescategory":"Turm"
    }
  },
  {
    "type": "Feature",
    "geometry": {
       "type": "Point",
       "coordinates":  [ 8.319366,50.204151 ]
    },
    "properties": {
    "limestownpard":"Heftrich",
    "limestown":"Idstein",
    "limesobject":"Turm 3/30",
    "ID":322,
    "limescategory":"Turm"
    }
  },
  {
    "type": "Feature",
    "geometry": {
       "type": "Point",
       "coordinates":  [ 8.371574,50.215755 ]
    },
    "properties": {
    "limestownpard":"Schlossborn",
    "limestown":"Glashütten",
    "limesobject":"Turm 3/37",
    "ID":323,
    "limescategory":"Turm"
    }
  },
  {
    "type": "Feature",
    "geometry": {
       "type": "Point",
       "coordinates":  [ 8.438608,50.224728 ]
    },
    "properties": {
    "limestownpard":"",
    "limestown":"Glashütten",
    "limesobject":"Turm 3/45",
    "ID":324,
    "limescategory":"Turm"
    }
  },
  {
    "type": "Feature",
    "geometry": {
       "type": "Point",
       "coordinates":  [ 8.421679,50.223675 ]
    },
    "properties": {
    "limestownpard":"",
    "limestown":"Glashütten",
    "limesobject":"Turm 3/43",
    "ID":325,
    "limescategory":"Turm"
    }
  },
  {
    "type": "Feature",
    "geometry": {
       "type": "Point",
       "coordinates":  [ 8.710831,50.514059 ]
    },
    "properties": {
    "limestownpard":"Grüningen",
    "limestown":"Pohlheim",
    "limesobject":"Turm 4/48a",
    "ID":326,
    "limescategory":"Turm"
    }
  },
  {
    "type": "Feature",
    "geometry": {
       "type": "Point",
       "coordinates":  [ 8.43816,50.224717 ]
    },
    "properties": {
    "limestownpard":"",
    "limestown":"Glashütten",
    "limesobject":"Turm 3/45",
    "ID":327,
    "limescategory":"Turm"
    }
  },
  {
    "type": "Feature",
    "geometry": {
       "type": "Point",
       "coordinates":  [ 8.81498,50.488273 ]
    },
    "properties": {
    "limestownpard":"Muschenheim",
    "limestown":"Lich",
    "limesobject":"Turm 4/62",
    "ID":328,
    "limescategory":"Turm"
    }
  },
  {
    "type": "Feature",
    "geometry": {
       "type": "Point",
       "coordinates":  [ 8.503049,50.248342 ]
    },
    "properties": {
    "limestownpard":"",
    "limestown":"Bad Homburg",
    "limesobject":"Turm 3/55",
    "ID":329,
    "limescategory":"Turm"
    }
  },
  {
    "type": "Feature",
    "geometry": {
       "type": "Point",
       "coordinates":  [ 8.756616,50.518209 ]
    },
    "properties": {
    "limestownpard":"Grüningen",
    "limestown":"Pohlheim",
    "limesobject":"Turm 4/53",
    "ID":330,
    "limescategory":"Turm"
    }
  },
  {
    "type": "Feature",
    "geometry": {
       "type": "Point",
       "coordinates":  [ 8.744174,50.519378 ]
    },
    "properties": {
    "limestownpard":"Grüningen",
    "limestown":"Pohlheim",
    "limesobject":"Turm 4/52",
    "ID":331,
    "limescategory":"Turm"
    }
  },
  {
    "type": "Feature",
    "geometry": {
       "type": "Point",
       "coordinates":  [ 8.756828,50.518182 ]
    },
    "properties": {
    "limestownpard":"Grüningen",
    "limestown":"Pohlheim",
    "limesobject":"Turm 4/53",
    "ID":332,
    "limescategory":"Turm"
    }
  },
  {
    "type": "Feature",
    "geometry": {
       "type": "Point",
       "coordinates":  [ 8.744611,50.519397 ]
    },
    "properties": {
    "limestownpard":"Grüningen",
    "limestown":"Pohlheim",
    "limesobject":"Turm 4/52",
    "ID":333,
    "limescategory":"Turm"
    }
  },
  {
    "type": "Feature",
    "geometry": {
       "type": "Point",
       "coordinates":  [ 8.757082,50.518183 ]
    },
    "properties": {
    "limestownpard":"Grüningen",
    "limestown":"Pohlheim",
    "limesobject":"Turm 4/53",
    "ID":334,
    "limescategory":"Turm"
    }
  },
  {
    "type": "Feature",
    "geometry": {
       "type": "Point",
       "coordinates":  [ 8.757238,50.518039 ]
    },
    "properties": {
    "limestownpard":"Grüningen",
    "limestown":"Pohlheim",
    "limesobject":"Turm 4/53",
    "ID":335,
    "limescategory":"Turm"
    }
  },
  {
    "type": "Feature",
    "geometry": {
       "type": "Point",
       "coordinates":  [ 8.756899,50.518012 ]
    },
    "properties": {
    "limestownpard":"Güningen",
    "limestown":"Pohlheim",
    "limesobject":"Turm 4/53",
    "ID":336,
    "limescategory":"Turm"
    }
  },
  {
    "type": "Feature",
    "geometry": {
       "type": "Point",
       "coordinates":  [ 8.780545,50.508988 ]
    },
    "properties": {
    "limestownpard":"Arnsburg",
    "limestown":"Lich",
    "limesobject":"Turm 4/56",
    "ID":337,
    "limescategory":"Turm"
    }
  },
  {
    "type": "Feature",
    "geometry": {
       "type": "Point",
       "coordinates":  [ 8.780289,50.509284 ]
    },
    "properties": {
    "limestownpard":"Arnsburg",
    "limestown":"Lich",
    "limesobject":"Turm 4/56",
    "ID":338,
    "limescategory":"Turm"
    }
  },
  {
    "type": "Feature",
    "geometry": {
       "type": "Point",
       "coordinates":  [ 8.458347,50.237597 ]
    },
    "properties": {
    "limestownpard":"",
    "limestown":"Oberursel",
    "limesobject":"Turm 3/49",
    "ID":339,
    "limescategory":"Turm"
    }
  },
  {
    "type": "Feature",
    "geometry": {
       "type": "Point",
       "coordinates":  [ 8.795725,50.499747 ]
    },
    "properties": {
    "limestownpard":"Arnsburg",
    "limestown":"Lich",
    "limesobject":"Turm 4/59",
    "ID":340,
    "limescategory":"Turm"
    }
  },
  {
    "type": "Feature",
    "geometry": {
       "type": "Point",
       "coordinates":  [ 8.472533,50.240153 ]
    },
    "properties": {
    "limestownpard":"",
    "limestown":"Oberursel",
    "limesobject":"Turm 3/51",
    "ID":341,
    "limescategory":"Turm"
    }
  },
  {
    "type": "Feature",
    "geometry": {
       "type": "Point",
       "coordinates":  [ 8.48003,50.242893 ]
    },
    "properties": {
    "limestownpard":"Oberstedten",
    "limestown":"Oberursel",
    "limesobject":"Turm 3/52",
    "ID":342,
    "limescategory":"Turm"
    }
  },
  {
    "type": "Feature",
    "geometry": {
       "type": "Point",
       "coordinates":  [ 8.502922,50.248423 ]
    },
    "properties": {
    "limestownpard":"",
    "limestown":"Bad Homburg",
    "limesobject":"Turm 3/55",
    "ID":343,
    "limescategory":"Turm"
    }
  },
  {
    "type": "Feature",
    "geometry": {
       "type": "Point",
       "coordinates":  [ 8.533372,50.258654 ]
    },
    "properties": {
    "limestownpard":"",
    "limestown":"Bad Homburg",
    "limesobject":"Turm 3/60",
    "ID":344,
    "limescategory":"Turm"
    }
  },
  {
    "type": "Feature",
    "geometry": {
       "type": "Point",
       "coordinates":  [ 8.966737,50.252753 ]
    },
    "properties": {
    "limestownpard":"Himbach",
    "limestown":"Limeshain",
    "limesobject":"Turm 4/103",
    "ID":345,
    "limescategory":"Turm"
    }
  },
  {
    "type": "Feature",
    "geometry": {
       "type": "Point",
       "coordinates":  [ 8.929099,50.303305 ]
    },
    "properties": {
    "limestownpard":"Stammheim",
    "limestown":"Florstadt",
    "limesobject":"Turm 4/96",
    "ID":346,
    "limescategory":"Turm"
    }
  },
  {
    "type": "Feature",
    "geometry": {
       "type": "Point",
       "coordinates":  [ 8.537776,50.261521 ]
    },
    "properties": {
    "limestownpard":"Obernhain",
    "limestown":"Wehrheim",
    "limesobject":"Turm 3/61",
    "ID":347,
    "limescategory":"Turm"
    }
  },
  {
    "type": "Feature",
    "geometry": {
       "type": "Point",
       "coordinates":  [ 8.537929,50.261576 ]
    },
    "properties": {
    "limestownpard":"Obernhain",
    "limestown":"Wehrheim",
    "limesobject":"Turm 3/61",
    "ID":348,
    "limescategory":"Turm"
    }
  },
  {
    "type": "Feature",
    "geometry": {
       "type": "Point",
       "coordinates":  [ 8.97524,50.241644 ]
    },
    "properties": {
    "limestownpard":"Langen-Bergheim",
    "limestown":"Hammersbach",
    "limesobject":"Turm 4/105",
    "ID":349,
    "limescategory":"Turm"
    }
  },