{"type": "FeatureCollection", "id": "http://lod.squirrel.link/data/limes/germaniainferior/LimesGermaniaInferiorGeometries", "name": "Limes Germania Inferior Geometries", "features": [{"type": "Feature", "id": "http://lod.squirrel.link/data/limes/germaniainferior/a2bea8d5-01f2-4d4f-b0b3-0137a51c5441_geom", "name": "Nigrum Pullum Geometry (a2bea8d5-01f2-4d4f-b0b3-0137a51c5441_geom)", "dateprops": [], "properties": {}, "geometry": {"type": "Point", "coordinates": [4.715925, 52.105097], "crs": "/4326"}}, {"type": "Feature", "id": "http://lod.squirrel.link/data/limes/germaniainferior/b35331ba-9289-456b-a0f0-e04e2f24755c_geom", "name": "Kastell Huissen Geometry (b35331ba-9289-456b-a0f0-e04e2f24755c_geom)", "dateprops": [], "properties": {}, "geometry": {"type": "Point", "coordinates": [5.943333, 51.935278], "crs": "/4326"}}, {"type": "Feature", "id": "http://lod.squirrel.link/data/limes/germaniainferior/b3852c1f-95cb-47f4-8a70-96b20f0f2b15_geom", "name": "Asciburgium Geometry (b3852c1f-95cb-47f4-8a70-96b20f0f2b15_geom)", "dateprops": [], "properties": {}, "geometry": {"type": "Point", "coordinates": [6.67, 51.431667], "crs": "/4326"}}, {"type": "Feature", "id": "http://lod.squirrel.link/data/limes/germaniainferior/b5c44356-76fc-4692-b29b-e67fe18f2cd3_geom", "name": "Ceuclum Geometry (b5c44356-76fc-4692-b29b-e67fe18f2cd3_geom)", "dateprops": [], "properties": {}, "geometry": {"type": "Point", "coordinates": [5.882969, 51.729125], "crs": "/4326"}}, {"type": "Feature", "id": "http://lod.squirrel.link/data/limes/germaniainferior/b9b6bdae-7bde-416f-af8e-47c048122b75_geom", "name": "Kastell Overbetuwe-Randwijk Geometry (b9b6bdae-7bde-416f-af8e-47c048122b75_geom)", "dateprops": [], "properties": {}, "geometry": {"type": "Point", "coordinates": [5.710278, 51.954444], "crs": "/4326"}}, {"type": "Feature", "id": "http://lod.squirrel.link/data/limes/germaniainferior/bcc18f1b-a0fa-4244-bd91-cdfa04a98af3_geom", "name": "Albaniana Geometry (bcc18f1b-a0fa-4244-bd91-cdfa04a98af3_geom)", "dateprops": [], "properties": {}, "geometry": {"type": "Point", "coordinates": [4.661619, 52.129403], "crs": "/4326"}}, {"type": "Feature", "id": "http://lod.squirrel.link/data/limes/germaniainferior/c3af096e-b097-435b-8948-9e7a81d3ce97_geom", "name": "Laurium (castellum) Geometry (c3af096e-b097-435b-8948-9e7a81d3ce97_geom)", "dateprops": [], "properties": {}, "geometry": {"type": "Point", "coordinates": [4.883953, 52.086064], "crs": "/4326"}}, {"type": "Feature", "id": "http://lod.squirrel.link/data/limes/germaniainferior/ce2e748b-0abb-49a7-aa86-1362051c9d24_geom", "name": "Kastell Velsen II Geometry (ce2e748b-0abb-49a7-aa86-1362051c9d24_geom)", "dateprops": [], "properties": {}, "geometry": {"type": "Point", "coordinates": [4.659306, 52.456389], "crs": "/4326"}}, {"type": "Feature", "id": "http://lod.squirrel.link/data/limes/germaniainferior/d5c06a3b-fc3e-4618-9acc-0fe01e9f606f_geom", "name": "Kleinkastell Werthausen Geometry (d5c06a3b-fc3e-4618-9acc-0fe01e9f606f_geom)", "dateprops": [], "properties": {}, "geometry": {"type": "Point", "coordinates": [6.711111, 51.422222], "crs": "/4326"}}, {"type": "Feature", "id": "http://lod.squirrel.link/data/limes/germaniainferior/e0ca600e-5d30-4965-af63-874b48814d3d_geom", "name": "Kastell Wesel-B\u00fcderich Geometry (e0ca600e-5d30-4965-af63-874b48814d3d_geom)", "dateprops": [], "properties": {}, "geometry": {"type": "Point", "coordinates": [6.580556, 51.638333], "crs": "/4326"}}, {"type": "Feature", "id": "http://lod.squirrel.link/data/limes/germaniainferior/f2095095-501b-40e6-b4b9-0fd7bf49431d_geom", "name": "Fletio Geometry (f2095095-501b-40e6-b4b9-0fd7bf49431d_geom)", "dateprops": [], "properties": {}, "geometry": {"type": "Point", "coordinates": [5.041944, 52.087222], "crs": "/4326"}}, {"type": "Feature", "id": "http://lod.squirrel.link/data/limes/germaniainferior/0d55bdb0-f758-4679-88f2-b3a76e920ab3_geom", "name": "Apud aram Ubiorum Geometry (0d55bdb0-f758-4679-88f2-b3a76e920ab3_geom)", "dateprops": [], "properties": {}, "geometry": {"type": "Point", "coordinates": [6.957778, 50.942222], "crs": "/4326"}}, {"type": "Feature", "id": "http://lod.squirrel.link/data/limes/germaniainferior/07605059-9ec3-4bb9-840f-425320e9e2ed_geom", "name": "Kastell Overbetuwe-Driel Geometry (07605059-9ec3-4bb9-840f-425320e9e2ed_geom)", "dateprops": [], "properties": {}, "geometry": {"type": "Point", "coordinates": [5.820833, 51.959444], "crs": "/4326"}}, {"type": "Feature", "id": "http://lod.squirrel.link/data/limes/germaniainferior/2d4a3c93-9ed4-4ca6-be0c-5d0fe8969b4e_geom", "name": "Kleinkastell am Reckberg Geometry (2d4a3c93-9ed4-4ca6-be0c-5d0fe8969b4e_geom)", "dateprops": [], "properties": {}, "geometry": {"type": "Point", "coordinates": [6.766536, 51.175089], "crs": "/4326"}}, {"type": "Feature", "id": "http://lod.squirrel.link/data/limes/germaniainferior/27df7c06-b16d-4f57-a2f3-c5d4544cf58f_geom", "name": "Praetorium Agrippinae Geometry (27df7c06-b16d-4f57-a2f3-c5d4544cf58f_geom)", "dateprops": [], "properties": {}, "geometry": {"type": "Point", "coordinates": [4.431667, 52.179722], "crs": "/4326"}}, {"type": "Feature", "id": "http://lod.squirrel.link/data/limes/germaniainferior/4b55f485-4cd2-4a8d-b130-aa4adc882d7c_geom", "name": "Kastell Duiven-Loowaard Geometry (4b55f485-4cd2-4a8d-b130-aa4adc882d7c_geom)", "dateprops": [], "properties": {}, "geometry": {"type": "Point", "coordinates": [5.9875, 51.920833], "crs": "/4326"}}, {"type": "Feature", "id": "http://lod.squirrel.link/data/limes/germaniainferior/432caec7-bb27-4da5-8c0d-ddaafcd51769_geom", "name": "Kastell Steincheshof Geometry (432caec7-bb27-4da5-8c0d-ddaafcd51769_geom)", "dateprops": [], "properties": {}, "geometry": {"type": "Point", "coordinates": [6.234444, 51.759167], "crs": "/4326"}}, {"type": "Feature", "id": "http://lod.squirrel.link/data/limes/germaniainferior/526deee6-c498-4b0b-a0ee-c97178c138fc_geom", "name": "Kastell Maldegem-Vake Geometry (526deee6-c498-4b0b-a0ee-c97178c138fc_geom)", "dateprops": [], "properties": {}, "geometry": {"type": "Point", "coordinates": [3.425139, 51.222361], "crs": "/4326"}}, {"type": "Feature", "id": "http://lod.squirrel.link/data/limes/germaniainferior/57fef844-bff8-4abb-8305-044f66f57452_geom", "name": "Kleinkastell Ockenburgh Geometry (57fef844-bff8-4abb-8305-044f66f57452_geom)", "dateprops": [], "properties": {}, "geometry": {"type": "Point", "coordinates": [5.691528, 52.283889], "crs": "/4326"}}, {"type": "Feature", "id": "http://lod.squirrel.link/data/limes/germaniainferior/7ae857f7-6fdf-42c8-9779-0d0d7a0c369e_geom", "name": "Carvo Geometry (7ae857f7-6fdf-42c8-9779-0d0d7a0c369e_geom)", "dateprops": [], "properties": {}, "geometry": {"type": "Point", "coordinates": [5.5625, 51.929722], "crs": "/4326"}}, {"type": "Feature", "id": "http://lod.squirrel.link/data/limes/germaniainferior/7bdcc559-03d3-47fc-9592-3323842bf83b_geom", "name": "Mannaricium Geometry (7bdcc559-03d3-47fc-9592-3323842bf83b_geom)", "dateprops": [], "properties": {}, "geometry": {"type": "Point", "coordinates": [5.422778, 51.970278], "crs": "/4326"}}, {"type": "Feature", "id": "http://lod.squirrel.link/data/limes/germaniainferior/8c99c0b6-c1e4-4eb1-bb81-312b3207f245_geom", "name": "Kastell Velsen I Geometry (8c99c0b6-c1e4-4eb1-bb81-312b3207f245_geom)", "dateprops": [], "properties": {}, "geometry": {"type": "Point", "coordinates": [4.669444, 52.451944], "crs": "/4326"}}, {"type": "Feature", "id": "http://lod.squirrel.link/data/limes/germaniainferior/8f9fc336-1f16-4461-898b-ce5ce0a28921_geom", "name": "Burginatium Geometry (8f9fc336-1f16-4461-898b-ce5ce0a28921_geom)", "dateprops": [], "properties": {}, "geometry": {"type": "Point", "coordinates": [6.318889, 51.713889], "crs": "/4326"}}, {"type": "Feature", "id": "http://lod.squirrel.link/data/limes/germaniainferior/823bacf7-11b7-48a3-b3f2-6a780a2da387_geom", "name": "Fectio Geometry (823bacf7-11b7-48a3-b3f2-6a780a2da387_geom)", "dateprops": [], "properties": {}, "geometry": {"type": "Point", "coordinates": [5.165556, 52.056111], "crs": "/4326"}}, {"type": "Feature", "id": "http://lod.squirrel.link/data/limes/germaniainferior/9ec23b64-edcf-42a2-ac2e-22e0e0a2101e_geom", "name": "Kleinkastell Bodegraven Geometry (9ec23b64-edcf-42a2-ac2e-22e0e0a2101e_geom)", "dateprops": [], "properties": {}, "geometry": {"type": "Point", "coordinates": [4.745694, 52.08375], "crs": "/4326"}}, {"type": "Feature", "id": "http://lod.squirrel.link/data/limes/germaniainferior/93c44eaf-2945-411a-a323-186aa29ee068_geom", "name": "Kastell Aardenburg Geometry (93c44eaf-2945-411a-a323-186aa29ee068_geom)", "dateprops": [], "properties": {}, "geometry": {"type": "Point", "coordinates": [3.446667, 51.272639], "crs": "/4326"}}, {"type": "Feature", "id": "http://lod.squirrel.link/data/limes/germaniainferior/944e27f0-40f0-4745-8ec9-4a5a3390a179_geom", "name": "Flottenkastell Alteburg Geometry (944e27f0-40f0-4745-8ec9-4a5a3390a179_geom)", "dateprops": [], "properties": {}, "geometry": {"type": "Point", "coordinates": [6.979444, 50.904167], "crs": "/4326"}}], "numberMatched": 27, "numberReturned": 27, "bbox": [3.425139, 50.904167, 6.979444, 52.456389], "crs": "http://www.opengis.net/def/crs/EPSG/0/4326"}