{"type": "FeatureCollection", "id": "http://lod.squirrel.link/data/limes/midlandswalescornwall/MidlandsWalesCornwallGeometries", "name": "Midlands Wales Cornwall Geometries", "features": [{"type": "Feature", "id": "http://lod.squirrel.link/data/limes/midlandswalescornwall/a0c87a08-a3b7-4e6f-90bc-8533f05dfbe5_geom", "name": "Deva Victrix Geometry (a0c87a08-a3b7-4e6f-90bc-8533f05dfbe5_geom)", "dateprops": [], "properties": {}, "geometry": {"type": "Point", "coordinates": [-2.892886, 53.191503], "crs": "/4326"}}, {"type": "Feature", "id": "http://lod.squirrel.link/data/limes/midlandswalescornwall/a1d2a417-f83c-42d8-beb0-a66c07205771_geom", "name": "Kastell Beulah Geometry (a1d2a417-f83c-42d8-beb0-a66c07205771_geom)", "dateprops": [], "properties": {}, "geometry": {"type": "Point", "coordinates": [-3.018, 51.822], "crs": "/4326"}}, {"type": "Feature", "id": "http://lod.squirrel.link/data/limes/midlandswalescornwall/a4904939-1939-42a4-942b-60681dc45f30_geom", "name": "Kleinkastell Caer Gybi Geometry (a4904939-1939-42a4-942b-60681dc45f30_geom)", "dateprops": [], "properties": {}, "geometry": {"type": "Point", "coordinates": [-4.6325, 53.311667], "crs": "/4326"}}, {"type": "Feature", "id": "http://lod.squirrel.link/data/limes/midlandswalescornwall/ad8b8445-fcbb-4697-8f40-404efaec1489_geom", "name": "Kastell Carmarthen Geometry (ad8b8445-fcbb-4697-8f40-404efaec1489_geom)", "dateprops": [], "properties": {}, "geometry": {"type": "Point", "coordinates": [-4.303333, 51.856944], "crs": "/4326"}}, {"type": "Feature", "id": "http://lod.squirrel.link/data/limes/midlandswalescornwall/b3ee75b6-e145-4399-aff4-68cbc90b0629_geom", "name": "Ardotalia Geometry (b3ee75b6-e145-4399-aff4-68cbc90b0629_geom)", "dateprops": [], "properties": {}, "geometry": {"type": "Point", "coordinates": [-1.988056, 53.4525], "crs": "/4326"}}, {"type": "Feature", "id": "http://lod.squirrel.link/data/limes/midlandswalescornwall/ce8aba9e-3c66-4b4b-8cfe-eb942d59052d_geom", "name": "Kleinkastell Hen Waliau Geometry (ce8aba9e-3c66-4b4b-8cfe-eb942d59052d_geom)", "dateprops": [], "properties": {}, "geometry": {"type": "Point", "coordinates": [-4.269167, 53.137778], "crs": "/4326"}}, {"type": "Feature", "id": "http://lod.squirrel.link/data/limes/midlandswalescornwall/cf347329-1be3-4a4a-a723-626c10d64722_geom", "name": "Kastell Cardiff A Geometry (cf347329-1be3-4a4a-a723-626c10d64722_geom)", "dateprops": [], "properties": {}, "geometry": {"type": "Point", "coordinates": [-3.181111, 51.482222], "crs": "/4326"}}, {"type": "Feature", "id": "http://lod.squirrel.link/data/limes/midlandswalescornwall/d7254927-d49b-45c8-adef-45be35cea8ab_geom", "name": "Kastell Cardiff B Geometry (d7254927-d49b-45c8-adef-45be35cea8ab_geom)", "dateprops": [], "properties": {}, "geometry": {"type": "Point", "coordinates": [-3.181111, 51.482222], "crs": "/4326"}}, {"type": "Feature", "id": "http://lod.squirrel.link/data/limes/midlandswalescornwall/e2fb3019-26d7-4e0e-9f72-1dc415536378_geom", "name": "Kastell Caerphilly Geometry (e2fb3019-26d7-4e0e-9f72-1dc415536378_geom)", "dateprops": [], "properties": {}, "geometry": {"type": "Point", "coordinates": [-3.222431, 51.577569], "crs": "/4326"}}, {"type": "Feature", "id": "http://lod.squirrel.link/data/limes/midlandswalescornwall/e7d62830-39ab-4301-a897-9fe64f5a892c_geom", "name": "Kleinkastell Bryn Glas Geometry (e7d62830-39ab-4301-a897-9fe64f5a892c_geom)", "dateprops": [], "properties": {}, "geometry": {"type": "Point", "coordinates": [-4.238944, 53.147278], "crs": "/4326"}}, {"type": "Feature", "id": "http://lod.squirrel.link/data/limes/midlandswalescornwall/ed625560-b8fa-4d82-9322-3594551b8c96_geom", "name": "Kastell Caersws II Geometry (ed625560-b8fa-4d82-9322-3594551b8c96_geom)", "dateprops": [], "properties": {}, "geometry": {"type": "Point", "coordinates": [-3.432083, 52.516944], "crs": "/4326"}}, {"type": "Feature", "id": "http://lod.squirrel.link/data/limes/midlandswalescornwall/f2634f9a-dca9-4577-a5a3-f4ba92bcd03f_geom", "name": "Isca Silurum Geometry (f2634f9a-dca9-4577-a5a3-f4ba92bcd03f_geom)", "dateprops": [], "properties": {}, "geometry": {"type": "Point", "coordinates": [-2.955386, 51.610647], "crs": "/4326"}}, {"type": "Feature", "id": "http://lod.squirrel.link/data/limes/midlandswalescornwall/fb9e2432-fec5-43f4-9a60-83d171a5921e_geom", "name": "Kastell Caerhun (Canovium) Geometry (fb9e2432-fec5-43f4-9a60-83d171a5921e_geom)", "dateprops": [], "properties": {}, "geometry": {"type": "Point", "coordinates": [-3.834167, 53.216181], "crs": "/4326"}}, {"type": "Feature", "id": "http://lod.squirrel.link/data/limes/midlandswalescornwall/fcd9beaf-116a-4836-b264-bffd5527663e_geom", "name": "Lunt Roman Fort I Geometry (fcd9beaf-116a-4836-b264-bffd5527663e_geom)", "dateprops": [], "properties": {}, "geometry": {"type": "Point", "coordinates": [-1.49, 52.37], "crs": "/4326"}}, {"type": "Feature", "id": "http://lod.squirrel.link/data/limes/midlandswalescornwall/1ccf2406-bad8-4938-880c-c9a9365f213d_geom", "name": "Kastell Caer Gai Geometry (1ccf2406-bad8-4938-880c-c9a9365f213d_geom)", "dateprops": [], "properties": {}, "geometry": {"type": "Point", "coordinates": [-3.668889, 52.869028], "crs": "/4326"}}, {"type": "Feature", "id": "http://lod.squirrel.link/data/limes/midlandswalescornwall/1981b386-39e5-42c1-bca9-6000dfe926ad_geom", "name": "Kastell Bryn Y Gefeiliau Geometry (1981b386-39e5-42c1-bca9-6000dfe926ad_geom)", "dateprops": [], "properties": {}, "geometry": {"type": "Point", "coordinates": [-3.874583, 53.0975], "crs": "/4326"}}, {"type": "Feature", "id": "http://lod.squirrel.link/data/limes/midlandswalescornwall/207f89fa-bf61-4abd-9681-d7837ca7d51f_geom", "name": "Gobannium Geometry (207f89fa-bf61-4abd-9681-d7837ca7d51f_geom)", "dateprops": [], "properties": {}, "geometry": {"type": "Point", "coordinates": [-3.018, 51.822], "crs": "/4326"}}, {"type": "Feature", "id": "http://lod.squirrel.link/data/limes/midlandswalescornwall/2251c787-e2fb-4c65-9662-b3296b2d36b5_geom", "name": "Lunt Roman Fort IV Geometry (2251c787-e2fb-4c65-9662-b3296b2d36b5_geom)", "dateprops": [], "properties": {}, "geometry": {"type": "Point", "coordinates": [-1.49, 52.37], "crs": "/4326"}}, {"type": "Feature", "id": "http://lod.squirrel.link/data/limes/midlandswalescornwall/3f2c1551-85ca-4f89-81f6-db55736b6325_geom", "name": "Kastell Brecon Y Gaer Geometry (3f2c1551-85ca-4f89-81f6-db55736b6325_geom)", "dateprops": [], "properties": {}, "geometry": {"type": "Point", "coordinates": [-3.451736, 51.9565], "crs": "/4326"}}, {"type": "Feature", "id": "http://lod.squirrel.link/data/limes/midlandswalescornwall/32f81caa-d550-4ce3-bd96-afbd809e0a4d_geom", "name": "Kastell Cardiff C Geometry (32f81caa-d550-4ce3-bd96-afbd809e0a4d_geom)", "dateprops": [], "properties": {}, "geometry": {"type": "Point", "coordinates": [-3.181111, 51.482222], "crs": "/4326"}}, {"type": "Feature", "id": "http://lod.squirrel.link/data/limes/midlandswalescornwall/41fae62b-cdaa-44c7-9a2f-5eb92621db71_geom", "name": "Lunt Roman Fort II Geometry (41fae62b-cdaa-44c7-9a2f-5eb92621db71_geom)", "dateprops": [], "properties": {}, "geometry": {"type": "Point", "coordinates": [-1.49, 52.37], "crs": "/4326"}}, {"type": "Feature", "id": "http://lod.squirrel.link/data/limes/midlandswalescornwall/43ce98a8-2fab-4c4a-86ad-d18cbb7548a5_geom", "name": "Lunt Roman Fort III Geometry (43ce98a8-2fab-4c4a-86ad-d18cbb7548a5_geom)", "dateprops": [], "properties": {}, "geometry": {"type": "Point", "coordinates": [-1.49, 52.37], "crs": "/4326"}}, {"type": "Feature", "id": "http://lod.squirrel.link/data/limes/midlandswalescornwall/61a1eeed-0e4f-45ad-9a54-cee033b0b837_geom", "name": "Kastell Caersws I Geometry (61a1eeed-0e4f-45ad-9a54-cee033b0b837_geom)", "dateprops": [], "properties": {}, "geometry": {"type": "Point", "coordinates": [-3.4225, 52.521389], "crs": "/4326"}}, {"type": "Feature", "id": "http://lod.squirrel.link/data/limes/midlandswalescornwall/66367869-4ca7-44d6-9782-ed7c3bf5efbe_geom", "name": "Kastell Caerau Geometry (66367869-4ca7-44d6-9782-ed7c3bf5efbe_geom)", "dateprops": [], "properties": {}, "geometry": {"type": "Point", "coordinates": [-3.573889, 52.139167], "crs": "/4326"}}, {"type": "Feature", "id": "http://lod.squirrel.link/data/limes/midlandswalescornwall/8165f2ca-91b5-4148-b5a1-37adebb59043_geom", "name": "Kleinkastell Brithdir Geometry (8165f2ca-91b5-4148-b5a1-37adebb59043_geom)", "dateprops": [], "properties": {}, "geometry": {"type": "Point", "coordinates": [-3.820972, 52.753333], "crs": "/4326"}}, {"type": "Feature", "id": "http://lod.squirrel.link/data/limes/midlandswalescornwall/822f96a2-8331-472e-95a8-65093e2be433_geom", "name": "Venta Silurum Geometry (822f96a2-8331-472e-95a8-65093e2be433_geom)", "dateprops": [], "properties": {}, "geometry": {"type": "Point", "coordinates": [-2.768194, 51.611389], "crs": "/4326"}}, {"type": "Feature", "id": "http://lod.squirrel.link/data/limes/midlandswalescornwall/86169d7e-1006-408e-85fd-9bfb06b88d09_geom", "name": "Kastell Cardiff D Geometry (86169d7e-1006-408e-85fd-9bfb06b88d09_geom)", "dateprops": [], "properties": {}, "geometry": {"type": "Point", "coordinates": [-3.181111, 51.482222], "crs": "/4326"}}, {"type": "Feature", "id": "http://lod.squirrel.link/data/limes/midlandswalescornwall/87505f9f-d868-4d50-8b7d-8cb21d641d36_geom", "name": "Kastell Segontium Geometry (87505f9f-d868-4d50-8b7d-8cb21d641d36_geom)", "dateprops": [], "properties": {}, "geometry": {"type": "Point", "coordinates": [-4.265833, 53.137222], "crs": "/4326"}}, {"type": "Feature", "id": "http://lod.squirrel.link/data/limes/midlandswalescornwall/9d2fd06d-8b12-46aa-9e88-6d25aadfae6c_geom", "name": "Kleinkastell Cae Gaer Geometry (9d2fd06d-8b12-46aa-9e88-6d25aadfae6c_geom)", "dateprops": [], "properties": {}, "geometry": {"type": "Point", "coordinates": [-3.731542, 52.422375], "crs": "/4326"}}], "numberMatched": 29, "numberReturned": 29, "bbox": [-4.6325, 51.482222, -1.49, 53.4525], "crs": "http://www.opengis.net/def/crs/EPSG/0/4326"}