{"type": "FeatureCollection", "id": "http://lod.squirrel.link/data/limes/noricum/LimesNoricumFeatures", "name": "Limes Noricum Features", "features": [{"type": "Feature", "id": "http://lod.squirrel.link/data/limes/noricum/a41296e5-fca2-4ce3-843e-a17871a5d85b", "name": "Burgus Wallsee-Nordhang (a41296e5-fca2-4ce3-843e-a17871a5d85b)", "dateprops": [], "properties": {}, "geometry": {"type": "Point", "coordinates": [14.716667, 48.166667], "crs": "4326"}}, {"type": "Feature", "id": "http://lod.squirrel.link/data/limes/noricum/b3e7d110-127b-45a7-9195-5e8a694e4862", "name": "Kastell Arelape (b3e7d110-127b-45a7-9195-5e8a694e4862)", "dateprops": [], "properties": {}, "geometry": {"type": "Point", "coordinates": [15.2, 48.2], "crs": "4326"}}, {"type": "Feature", "id": "http://lod.squirrel.link/data/limes/noricum/c2b75037-aed0-49b4-9e1c-39944efa5cb4", "name": "Wachturm S\u00e4usenstein (c2b75037-aed0-49b4-9e1c-39944efa5cb4)", "dateprops": [], "properties": {}, "geometry": {"type": "Point", "coordinates": [15.116667, 48.2], "crs": "4326"}}, {"type": "Feature", "id": "http://lod.squirrel.link/data/limes/noricum/c589a7d3-f71c-4051-ac8b-c701902d3610", "name": "Wachturm/Stra\u00dfenstation Maria Gugging (c589a7d3-f71c-4051-ac8b-c701902d3610)", "dateprops": [], "properties": {}, "geometry": {"type": "Point", "coordinates": [16.249167, 48.3125], "crs": "4326"}}, {"type": "Feature", "id": "http://lod.squirrel.link/data/limes/noricum/c75941f8-009d-4c4c-8505-0298a88a6fd4", "name": "Burgus Hollenburg (c75941f8-009d-4c4c-8505-0298a88a6fd4)", "dateprops": [], "properties": {}, "geometry": {"type": "Point", "coordinates": [15.680278, 48.38], "crs": "4326"}}, {"type": "Feature", "id": "http://lod.squirrel.link/data/limes/noricum/cb7b6f3a-395f-48b6-a6e3-247e6c5a2ff5", "name": "Wachturm Maria Ponsee S\u00fcd (cb7b6f3a-395f-48b6-a6e3-247e6c5a2ff5)", "dateprops": [], "properties": {}, "geometry": {"type": "Point", "coordinates": [15.913889, 48.3425], "crs": "4326"}}, {"type": "Feature", "id": "http://lod.squirrel.link/data/limes/noricum/cfcfa4b0-501f-4563-8157-3c76054014a4", "name": "Kastell Favianis (cfcfa4b0-501f-4563-8157-3c76054014a4)", "dateprops": [], "properties": {}, "geometry": {"type": "Point", "coordinates": [15.577639, 48.39375], "crs": "4326"}}, {"type": "Feature", "id": "http://lod.squirrel.link/data/limes/noricum/d0ef2a62-6c85-44ce-a995-65ab6d5a5f43", "name": "Kastell Boiotro (d0ef2a62-6c85-44ce-a995-65ab6d5a5f43)", "dateprops": [], "properties": {}, "geometry": {"type": "Point", "coordinates": [13.462222, 48.569722], "crs": "4326"}}, {"type": "Feature", "id": "http://lod.squirrel.link/data/limes/noricum/d151609e-cb90-4faf-a74b-54d2f52e01a1", "name": "Kastell Comagena (d151609e-cb90-4faf-a74b-54d2f52e01a1)", "dateprops": [], "properties": {}, "geometry": {"type": "Point", "coordinates": [16.052083, 48.331056], "crs": "4326"}}, {"type": "Feature", "id": "http://lod.squirrel.link/data/limes/noricum/d8bcb543-3948-43fd-937b-2782138b9deb", "name": "Kastell Wallsee (d8bcb543-3948-43fd-937b-2782138b9deb)", "dateprops": [], "properties": {}, "geometry": {"type": "Point", "coordinates": [14.716667, 48.166667], "crs": "4326"}}, {"type": "Feature", "id": "http://lod.squirrel.link/data/limes/noricum/ec211670-f0d2-4c53-b8a5-3b8830b0aaa1", "name": "Burgus Rossatz (ec211670-f0d2-4c53-b8a5-3b8830b0aaa1)", "dateprops": [], "properties": {}, "geometry": {"type": "Point", "coordinates": [15.445069, 48.369328], "crs": "4326"}}, {"type": "Feature", "id": "http://lod.squirrel.link/data/limes/noricum/ed3e59f2-e683-4800-9e27-92d82cbc867f", "name": "Burgus Neumarkt (ed3e59f2-e683-4800-9e27-92d82cbc867f)", "dateprops": [], "properties": {}, "geometry": {"type": "Point", "coordinates": [15.066667, 48.166667], "crs": "4326"}}, {"type": "Feature", "id": "http://lod.squirrel.link/data/limes/noricum/ed6779f9-6afd-4f34-b7ff-0a6e731d4846", "name": "Wachturm Freinberg  (ed6779f9-6afd-4f34-b7ff-0a6e731d4846)", "dateprops": [], "properties": {}, "geometry": {"type": "Point", "coordinates": [14.190556, 48.323889], "crs": "4326"}}, {"type": "Feature", "id": "http://lod.squirrel.link/data/limes/noricum/0a1032df-bf53-47e7-9da6-e56c2b97caa8", "name": "Burgus Hirschleitengraben (0a1032df-bf53-47e7-9da6-e56c2b97caa8)", "dateprops": [], "properties": {}, "geometry": {"type": "Point", "coordinates": [14.190556, 48.323889], "crs": "4326"}}, {"type": "Feature", "id": "http://lod.squirrel.link/data/limes/noricum/0e8a5ba3-887e-4540-92c3-d35fef2bd579", "name": "Kastell Eferding (0e8a5ba3-887e-4540-92c3-d35fef2bd579)", "dateprops": [], "properties": {}, "geometry": {"type": "Point", "coordinates": [14.033333, 48.316667], "crs": "4326"}}, {"type": "Feature", "id": "http://lod.squirrel.link/data/limes/noricum/0f5c8dda-88a9-48ad-bf8f-e72f216a4066", "name": "Kastell Zwentendorf (0f5c8dda-88a9-48ad-bf8f-e72f216a4066)", "dateprops": [], "properties": {}, "geometry": {"type": "Point", "coordinates": [15.913889, 48.3425], "crs": "4326"}}, {"type": "Feature", "id": "http://lod.squirrel.link/data/limes/noricum/1d31fa5a-61cc-42df-b958-a5e9d83555a3", "name": "Wachturm Maria Ponsee West (1d31fa5a-61cc-42df-b958-a5e9d83555a3)", "dateprops": [], "properties": {}, "geometry": {"type": "Point", "coordinates": [15.913889, 48.3425], "crs": "4326"}}, {"type": "Feature", "id": "http://lod.squirrel.link/data/limes/noricum/130bed48-35dd-45d9-9fc0-bc50fb465c60", "name": "Burgus Melk-Spielberg (130bed48-35dd-45d9-9fc0-bc50fb465c60)", "dateprops": [], "properties": {}, "geometry": {"type": "Point", "coordinates": [15.331111, 48.228333], "crs": "4326"}}, {"type": "Feature", "id": "http://lod.squirrel.link/data/limes/noricum/13572025-f4dc-4503-8aad-72050202752b", "name": "Kastell Melk (13572025-f4dc-4503-8aad-72050202752b)", "dateprops": [], "properties": {}, "geometry": {"type": "Point", "coordinates": [15.331111, 48.228333], "crs": "4326"}}, {"type": "Feature", "id": "http://lod.squirrel.link/data/limes/noricum/2bf44917-dd67-4ec8-9240-513476cdb60c", "name": "Kastell Augustianis (2bf44917-dd67-4ec8-9240-513476cdb60c)", "dateprops": [], "properties": {}, "geometry": {"type": "Point", "coordinates": [15.733056, 48.333333], "crs": "4326"}}, {"type": "Feature", "id": "http://lod.squirrel.link/data/limes/noricum/2e2c9ca5-61d1-459e-a151-fad5d81dd1b7", "name": "Locus Felicis (2e2c9ca5-61d1-459e-a151-fad5d81dd1b7)", "dateprops": [], "properties": {}, "geometry": {"type": "Point", "coordinates": [14.798056, 48.095556], "crs": "4326"}}, {"type": "Feature", "id": "http://lod.squirrel.link/data/limes/noricum/203478fb-4a78-48c7-bd75-97b667f6e707", "name": "Kleinkastell Eberranna (203478fb-4a78-48c7-bd75-97b667f6e707)", "dateprops": [], "properties": {}, "geometry": {"type": "Point", "coordinates": [13.773667, 48.471506], "crs": "4326"}}, {"type": "Feature", "id": "http://lod.squirrel.link/data/limes/noricum/2471711a-fb59-436f-ade5-b61e4fd67732", "name": "Wachturm Kobling See (2471711a-fb59-436f-ade5-b61e4fd67732)", "dateprops": [], "properties": {}, "geometry": {"type": "Point", "coordinates": [13.916667, 48.416667], "crs": "4326"}}, {"type": "Feature", "id": "http://lod.squirrel.link/data/limes/noricum/26f3beb0-0cb4-42a8-849d-38455b2d1b79", "name": "Burgus Passau-Haibach (26f3beb0-0cb4-42a8-849d-38455b2d1b79)", "dateprops": [], "properties": {}, "geometry": {"type": "Point", "coordinates": [13.498611, 48.574444], "crs": "4326"}}, {"type": "Feature", "id": "http://lod.squirrel.link/data/limes/noricum/32371ca3-a871-475e-8d85-49ca8c26da3d", "name": "Lauriacum (32371ca3-a871-475e-8d85-49ca8c26da3d)", "dateprops": [], "properties": {}, "geometry": {"type": "Point", "coordinates": [14.475, 48.216667], "crs": "4326"}}, {"type": "Feature", "id": "http://lod.squirrel.link/data/limes/noricum/4c745423-da08-4414-93b9-bf0df2382c76", "name": "Burgus Sommerau (4c745423-da08-4414-93b9-bf0df2382c76)", "dateprops": [], "properties": {}, "geometry": {"type": "Point", "coordinates": [14.716667, 48.166667], "crs": "4326"}}, {"type": "Feature", "id": "http://lod.squirrel.link/data/limes/noricum/4043d889-d9be-47b7-b9d3-afede593d67a", "name": "Wachturm Sarling (4043d889-d9be-47b7-b9d3-afede593d67a)", "dateprops": [], "properties": {}, "geometry": {"type": "Point", "coordinates": [15.116667, 48.2], "crs": "4326"}}, {"type": "Feature", "id": "http://lod.squirrel.link/data/limes/noricum/48f27058-f4ea-41f3-8319-888f59ffdd2d", "name": "Burgus Au-Rotte Hof (48f27058-f4ea-41f3-8319-888f59ffdd2d)", "dateprops": [], "properties": {}, "geometry": {"type": "Point", "coordinates": [14.716667, 48.166667], "crs": "4326"}}, {"type": "Feature", "id": "http://lod.squirrel.link/data/limes/noricum/5028c3bd-efbb-43b3-a8f6-a30ab9844d1b", "name": "Burgus Aggsbach-Dorf/Blashauskapelle (5028c3bd-efbb-43b3-a8f6-a30ab9844d1b)", "dateprops": [], "properties": {}, "geometry": {"type": "Point", "coordinates": [15.331111, 48.228333], "crs": "4326"}}, {"type": "Feature", "id": "http://lod.squirrel.link/data/limes/noricum/51607531-4767-41c1-94ca-86d68572c7c2", "name": "Kleinkastell Sankt Marienkirchen (51607531-4767-41c1-94ca-86d68572c7c2)", "dateprops": [], "properties": {}, "geometry": {"type": "Point", "coordinates": [13.428333, 48.378611], "crs": "4326"}}, {"type": "Feature", "id": "http://lod.squirrel.link/data/limes/noricum/58660c1d-c211-4cf7-90d6-b53a5957addc", "name": "Burgus St. Lorenz (58660c1d-c211-4cf7-90d6-b53a5957addc)", "dateprops": [], "properties": {}, "geometry": {"type": "Point", "coordinates": [15.445069, 48.369328], "crs": "4326"}}, {"type": "Feature", "id": "http://lod.squirrel.link/data/limes/noricum/64755b3a-9ff6-4c12-b9fb-778e3bde5b1f", "name": "Legionslager Albing (64755b3a-9ff6-4c12-b9fb-778e3bde5b1f)", "dateprops": [], "properties": {}, "geometry": {"type": "Point", "coordinates": [15.733056, 48.333333], "crs": "4326"}}, {"type": "Feature", "id": "http://lod.squirrel.link/data/limes/noricum/7e23ed9a-8efc-48ec-a294-a7cc9b8285dc", "name": "Milit\u00e4rziegelei Sankt Marienkirchen (7e23ed9a-8efc-48ec-a294-a7cc9b8285dc)", "dateprops": [], "properties": {}, "geometry": {"type": "Point", "coordinates": [13.423611, 48.38], "crs": "4326"}}, {"type": "Feature", "id": "http://lod.squirrel.link/data/limes/noricum/71192446-c179-4a45-9214-44ef9a3a996b", "name": "Burgus Bacharnsdorf (71192446-c179-4a45-9214-44ef9a3a996b)", "dateprops": [], "properties": {}, "geometry": {"type": "Point", "coordinates": [15.445069, 48.369328], "crs": "4326"}}, {"type": "Feature", "id": "http://lod.squirrel.link/data/limes/noricum/78b044f5-8a10-47ed-acf0-74658affbf22", "name": "Kastell Lentia (78b044f5-8a10-47ed-acf0-74658affbf22)", "dateprops": [], "properties": {}, "geometry": {"type": "Point", "coordinates": [14.290556, 48.303056], "crs": "4326"}}, {"type": "Feature", "id": "http://lod.squirrel.link/data/limes/noricum/8f964055-7a95-4e88-bcef-5bd3a5824de9", "name": "Kastell Cannabiaca (8f964055-7a95-4e88-bcef-5bd3a5824de9)", "dateprops": [], "properties": {}, "geometry": {"type": "Point", "coordinates": [16.177083, 48.328972], "crs": "4326"}}, {"type": "Feature", "id": "http://lod.squirrel.link/data/limes/noricum/80943cf4-f263-44f2-bd49-2a2c405b3be6", "name": "Kleinkastell Schl\u00f6gen (80943cf4-f263-44f2-bd49-2a2c405b3be6)", "dateprops": [], "properties": {}, "geometry": {"type": "Point", "coordinates": [13.916667, 48.416667], "crs": "4326"}}, {"type": "Feature", "id": "http://lod.squirrel.link/data/limes/noricum/8135cb6b-504d-4cae-9835-b9a7b0613163", "name": "Burgus Ybbs (8135cb6b-504d-4cae-9835-b9a7b0613163)", "dateprops": [], "properties": {}, "geometry": {"type": "Point", "coordinates": [15.066667, 48.166667], "crs": "4326"}}, {"type": "Feature", "id": "http://lod.squirrel.link/data/limes/noricum/88218e4a-aa6a-421c-84ea-a646790b80cb", "name": "Wachturm Kobling-Rossgraben (88218e4a-aa6a-421c-84ea-a646790b80cb)", "dateprops": [], "properties": {}, "geometry": {"type": "Point", "coordinates": [13.916667, 48.416667], "crs": "4326"}}, {"type": "Feature", "id": "http://lod.squirrel.link/data/limes/noricum/9f8f4e96-12d9-449b-b9ab-6e6080e34c9f", "name": "Kastell Boiodurum  (9f8f4e96-12d9-449b-b9ab-6e6080e34c9f)", "dateprops": [], "properties": {}, "geometry": {"type": "Point", "coordinates": [13.47585, 48.57125], "crs": "4326"}}], "numberMatched": 40, "numberReturned": 40, "bbox": [13.423611, 48.095556, 16.249167, 48.574444], "crs": "http://www.opengis.net/def/crs/EPSG/0/4326"}