{"type": "FeatureCollection", "id": "http://lod.squirrel.link/data/limes/pannoniainferior/LimesPannoniaInferiorGeometries", "name": "LimesPannoniaInferiorGeometries", "features": [{"type": "Feature", "id": "http://lod.squirrel.link/data/limes/pannoniainferior/a5dd32c0-df1c-4341-b711-24aff2b22322", "label": "Brigetio \u2013 Lager II (a5dd32c0-df1c-4341-b711-24aff2b22322)", "properties": {}, "geometry": {"type": "Point", "coordinates": [18.095411, 47.718189], "crs": "/4326"}}, {"type": "Feature", "id": "http://lod.squirrel.link/data/limes/pannoniainferior/ab4de5e3-0edb-4ac1-81d7-9d0550b163d6_geom", "label": "Erdlager I\u017ea-Le\u00e1nyv\u00e1r 1 Geometry (ab4de5e3-0edb-4ac1-81d7-9d0550b163d6_geom)", "properties": {}, "geometry": {"type": "Point", "coordinates": [18.183136, 47.744967], "crs": "/4326"}}, {"type": "Feature", "id": "http://lod.squirrel.link/data/limes/pannoniainferior/ace94069-cfb1-40ce-8ab4-f4da0c89cdd1_geom", "label": "Brigetio \u2013 Lager XX Geometry (ace94069-cfb1-40ce-8ab4-f4da0c89cdd1_geom)", "properties": {}, "geometry": {"type": "Point", "coordinates": [18.148461, 47.711711], "crs": "/4326"}}, {"type": "Feature", "id": "http://lod.squirrel.link/data/limes/pannoniainferior/ad90d8a1-600f-4533-b416-7b072c2dd447_geom", "label": "Brigetio \u2013 Lager XIII\u2013XIV Geometry (ad90d8a1-600f-4533-b416-7b072c2dd447_geom)", "properties": {}, "geometry": {"type": "Point", "coordinates": [18.244319, 47.718931], "crs": "/4326"}}, {"type": "Feature", "id": "http://lod.squirrel.link/data/limes/pannoniainferior/b64e9a5a-8008-4c71-af9a-894e99297eae_geom", "label": "Burgus Annamatia 6 Geometry (b64e9a5a-8008-4c71-af9a-894e99297eae_geom)", "properties": {}, "geometry": {"type": "Point", "coordinates": [18.886525, 46.748492], "crs": "/4326"}}, {"type": "Feature", "id": "http://lod.squirrel.link/data/limes/pannoniainferior/b80a9dba-dbeb-4ffd-ac12-95534d5991a4_geom", "label": "Kastell Kiseroszi Geometry (b80a9dba-dbeb-4ffd-ac12-95534d5991a4_geom)", "properties": {}, "geometry": {"type": "Point", "coordinates": [19.001056, 47.809639], "crs": "/4326"}}, {"type": "Feature", "id": "http://lod.squirrel.link/data/limes/pannoniainferior/baf5509d-053d-4793-9bde-3cd9a372cf43_geom", "label": "Brigetio \u2013 Lager VIII\u2013XI Geometry (baf5509d-053d-4793-9bde-3cd9a372cf43_geom)", "properties": {}, "geometry": {"type": "Point", "coordinates": [18.221686, 47.720664], "crs": "/4326"}}, {"type": "Feature", "id": "http://lod.squirrel.link/data/limes/pannoniainferior/bc7e9c02-c10a-4aa1-8c52-a2f413514fda_geom", "label": "Transaquincum Geometry (bc7e9c02-c10a-4aa1-8c52-a2f413514fda_geom)", "properties": {}, "geometry": {"type": "Point", "coordinates": [19.062361, 47.539333], "crs": "/4326"}}, {"type": "Feature", "id": "http://lod.squirrel.link/data/limes/pannoniainferior/bcfa7793-709f-4adc-b800-e178dae99e01_geom", "label": "Kastell Visegr\u00e1d\u2013Sibrik Geometry (bcfa7793-709f-4adc-b800-e178dae99e01_geom)", "properties": {}, "geometry": {"type": "Point", "coordinates": [18.980083, 47.798194], "crs": "/4326"}}, {"type": "Feature", "id": "http://lod.squirrel.link/data/limes/pannoniainferior/bf3f0671-28ae-42ac-b38f-8bde297ecbe0_geom", "label": "Kastell Alm\u00e1sf\u00fczit\u0151 Geometry (bf3f0671-28ae-42ac-b38f-8bde297ecbe0_geom)", "properties": {}, "geometry": {"type": "Point", "coordinates": [18.277269, 47.727619], "crs": "/4326"}}, {"type": "Feature", "id": "http://lod.squirrel.link/data/limes/pannoniainferior/ce9e5613-5021-4a81-9adc-fb37464de8ab_geom", "label": "Brigetio \u2013 Lager XXVIII Geometry (ce9e5613-5021-4a81-9adc-fb37464de8ab_geom)", "properties": {}, "geometry": {"type": "Point", "coordinates": [18.155719, 47.689289], "crs": "/4326"}}, {"type": "Feature", "id": "http://lod.squirrel.link/data/limes/pannoniainferior/ceac5833-9f93-4540-8d66-cda88c604156_geom", "label": "Kastell Eszterg\u00f3m Geometry (ceac5833-9f93-4540-8d66-cda88c604156_geom)", "properties": {}, "geometry": {"type": "Point", "coordinates": [18.736711, 47.799039], "crs": "/4326"}}, {"type": "Feature", "id": "http://lod.squirrel.link/data/limes/pannoniainferior/cebe94e2-6643-48c7-865b-9381171938de_geom", "label": "Kastell G\u00f6d-B\u00f3csa\u00fajtelep Geometry (cebe94e2-6643-48c7-865b-9381171938de_geom)", "properties": {}, "geometry": {"type": "Point", "coordinates": [19.163194, 47.682972], "crs": "/4326"}}, {"type": "Feature", "id": "http://lod.squirrel.link/data/limes/pannoniainferior/d0cc770a-8c40-4384-a773-c52cf84e0acb_geom", "label": "Erdlager I\u017ea-Le\u00e1nyv\u00e1r 2 Geometry (d0cc770a-8c40-4384-a773-c52cf84e0acb_geom)", "properties": {}, "geometry": {"type": "Point", "coordinates": [18.189103, 47.745108], "crs": "/4326"}}, {"type": "Feature", "id": "http://lod.squirrel.link/data/limes/pannoniainferior/d2a6a9e8-16b7-4752-84da-59b8698fc473_geom", "label": "Burgus Annamatia 2 Geometry (d2a6a9e8-16b7-4752-84da-59b8698fc473_geom)", "properties": {}, "geometry": {"type": "Point", "coordinates": [18.911617, 46.8496], "crs": "/4326"}}, {"type": "Feature", "id": "http://lod.squirrel.link/data/limes/pannoniainferior/db6b51e4-0c6a-4918-bfc5-738b7d626d0c_geom", "label": "Brigetio \u2013 Lager XXI Geometry (db6b51e4-0c6a-4918-bfc5-738b7d626d0c_geom)", "properties": {}, "geometry": {"type": "Point", "coordinates": [18.135219, 47.707489], "crs": "/4326"}}, {"type": "Feature", "id": "http://lod.squirrel.link/data/limes/pannoniainferior/eab5ab59-b69e-4a20-a483-1d5594664c42_geom", "label": "Kastell Teutoburgium Geometry (eab5ab59-b69e-4a20-a483-1d5594664c42_geom)", "properties": {}, "geometry": {"type": "Point", "coordinates": [19.00425, 45.500444], "crs": "/4326"}}, {"type": "Feature", "id": "http://lod.squirrel.link/data/limes/pannoniainferior/ec9c2a26-68eb-462e-a6ab-6e0d56e8820c_geom", "label": "Burgus Annamatia 5 Geometry (ec9c2a26-68eb-462e-a6ab-6e0d56e8820c_geom)", "properties": {}, "geometry": {"type": "Point", "coordinates": [18.927783, 46.808728], "crs": "/4326"}}, {"type": "Feature", "id": "http://lod.squirrel.link/data/limes/pannoniainferior/eec105bf-53e5-4e52-97b6-b5bb8de5c871_geom", "label": "Kastell Annamatia Geometry (eec105bf-53e5-4e52-97b6-b5bb8de5c871_geom)", "properties": {}, "geometry": {"type": "Point", "coordinates": [18.921472, 46.868278], "crs": "/4326"}}, {"type": "Feature", "id": "http://lod.squirrel.link/data/limes/pannoniainferior/ef4dc87e-0fd4-42d3-bff8-e481fde2d8fd_geom", "label": "Brigetio \u2013 Lager VII Geometry (ef4dc87e-0fd4-42d3-bff8-e481fde2d8fd_geom)", "properties": {}, "geometry": {"type": "Point", "coordinates": [18.177914, 47.708739], "crs": "/4326"}}, {"type": "Feature", "id": "http://lod.squirrel.link/data/limes/pannoniainferior/f1166725-ce99-4ce4-a509-7144191015eb_geom", "label": "Kastell Mursa Geometry (f1166725-ce99-4ce4-a509-7144191015eb_geom)", "properties": {}, "geometry": {"type": "Point", "coordinates": [18.6909, 45.5532], "crs": "/4326"}}, {"type": "Feature", "id": "http://lod.squirrel.link/data/limes/pannoniainferior/f258df11-3d47-4948-be41-91a17b96f0fe_geom", "label": "Kastell Ad Militare Geometry (f258df11-3d47-4948-be41-91a17b96f0fe_geom)", "properties": {}, "geometry": {"type": "Point", "coordinates": [18.848972, 45.854444], "crs": "/4326"}}, {"type": "Feature", "id": "http://lod.squirrel.link/data/limes/pannoniainferior/f5d17f90-36df-4e7d-ae74-e5ebdb7acc91_geom", "label": "Kastell Dunabogd\u00e1ny Geometry (f5d17f90-36df-4e7d-ae74-e5ebdb7acc91_geom)", "properties": {}, "geometry": {"type": "Point", "coordinates": [19.075194, 47.770722], "crs": "/4326"}}, {"type": "Feature", "id": "http://lod.squirrel.link/data/limes/pannoniainferior/ff287ea8-ee40-4278-b52a-cadb07d30702_geom", "label": "Kastell Ad NEvas Geometry (ff287ea8-ee40-4278-b52a-cadb07d30702_geom)", "properties": {}, "geometry": {"type": "Point", "coordinates": [18.80675, 45.801861], "crs": "/4326"}}, {"type": "Feature", "id": "http://lod.squirrel.link/data/limes/pannoniainferior/ff2fe46e-5c22-40e7-a07d-d414ef6ec2af_geom", "label": "Kastell Alisca Geometry (ff2fe46e-5c22-40e7-a07d-d414ef6ec2af_geom)", "properties": {}, "geometry": {"type": "Point", "coordinates": [18.767917, 46.325917], "crs": "/4326"}}, {"type": "Feature", "id": "http://lod.squirrel.link/data/limes/pannoniainferior/06c52928-baee-4d80-a8a4-c89b61cc2a91_geom", "label": "Kastell I\u017ea-Le\u00e1nyv\u00e1r Geometry (06c52928-baee-4d80-a8a4-c89b61cc2a91_geom)", "properties": {}, "geometry": {"type": "Point", "coordinates": [18.198906, 47.744806], "crs": "/4326"}}, {"type": "Feature", "id": "http://lod.squirrel.link/data/limes/pannoniainferior/075b9029-1d31-4389-9588-2aae0563bb07_geom", "label": "Kastell CampEna Geometry (075b9029-1d31-4389-9588-2aae0563bb07_geom)", "properties": {}, "geometry": {"type": "Point", "coordinates": [18.984639, 47.390806], "crs": "/4326"}}, {"type": "Feature", "id": "http://lod.squirrel.link/data/limes/pannoniainferior/1a7707ca-f256-415f-9f96-40728dc5a119_geom", "label": "Kastell Intercisa Geometry (1a7707ca-f256-415f-9f96-40728dc5a119_geom)", "properties": {}, "geometry": {"type": "Point", "coordinates": [18.936778, 46.97625], "crs": "/4326"}}, {"type": "Feature", "id": "http://lod.squirrel.link/data/limes/pannoniainferior/1fa19985-d997-45b3-8399-ddb1cc33aeea_geom", "label": "Brigetio \u2013 Lager III Geometry (1fa19985-d997-45b3-8399-ddb1cc33aeea_geom)", "properties": {}, "geometry": {"type": "Point", "coordinates": [18.093389, 47.713669], "crs": "/4326"}}, {"type": "Feature", "id": "http://lod.squirrel.link/data/limes/pannoniainferior/14bc70ba-404d-4e6d-a8df-7bd2d6002f34_geom", "label": "Brigetio \u2013 Lager XXXII Geometry (14bc70ba-404d-4e6d-a8df-7bd2d6002f34_geom)", "properties": {}, "geometry": {"type": "Point", "coordinates": [18.221419, 47.723231], "crs": "/4326"}}, {"type": "Feature", "id": "http://lod.squirrel.link/data/limes/pannoniainferior/17c2efe9-6ce7-4afc-9f5b-45cc9f7f1965_geom", "label": "Kastell Lussenium Geometry (17c2efe9-6ce7-4afc-9f5b-45cc9f7f1965_geom)", "properties": {}, "geometry": {"type": "Point", "coordinates": [18.882056, 46.65575], "crs": "/4326"}}, {"type": "Feature", "id": "http://lod.squirrel.link/data/limes/pannoniainferior/19da5b58-c63f-4d5b-a86f-685d3dce9c15_geom", "label": "Kastell Cernacum Geometry (19da5b58-c63f-4d5b-a86f-685d3dce9c15_geom)", "properties": {}, "geometry": {"type": "Point", "coordinates": [19.099083, 45.296944], "crs": "/4326"}}, {"type": "Feature", "id": "http://lod.squirrel.link/data/limes/pannoniainferior/2ba62f14-8e41-446a-bda9-e0840c1bdfb2_geom", "label": "Brigetio \u2013 Lager V Geometry (2ba62f14-8e41-446a-bda9-e0840c1bdfb2_geom)", "properties": {}, "geometry": {"type": "Point", "coordinates": [18.16405, 47.721061], "crs": "/4326"}}, {"type": "Feature", "id": "http://lod.squirrel.link/data/limes/pannoniainferior/2d2db48b-cc09-4399-8610-30b8cb48ab8f_geom", "label": "Burgus Annamatia 3 Geometry (2d2db48b-cc09-4399-8610-30b8cb48ab8f_geom)", "properties": {}, "geometry": {"type": "Point", "coordinates": [18.910297, 46.827744], "crs": "/4326"}}, {"type": "Feature", "id": "http://lod.squirrel.link/data/limes/pannoniainferior/3a0b7de2-aeb8-4e24-bda4-c0afb86c250c_geom", "label": "Brigetio \u2013 Lager XXV Geometry (3a0b7de2-aeb8-4e24-bda4-c0afb86c250c_geom)", "properties": {}, "geometry": {"type": "Point", "coordinates": [18.126431, 47.698119], "crs": "/4326"}}, {"type": "Feature", "id": "http://lod.squirrel.link/data/limes/pannoniainferior/3d1b9e48-8058-47bb-b6b8-912148844075_geom", "label": "Kastell Budapest-Albertfalva Geometry (3d1b9e48-8058-47bb-b6b8-912148844075_geom)", "properties": {}, "geometry": {"type": "Point", "coordinates": [19.046778, 47.439222], "crs": "/4326"}}, {"type": "Feature", "id": "http://lod.squirrel.link/data/limes/pannoniainferior/3f41e388-9ea2-4b35-81a8-9e601d6601a7_geom", "label": "Kastell Vetus Salina Geometry (3f41e388-9ea2-4b35-81a8-9e601d6601a7_geom)", "properties": {}, "geometry": {"type": "Point", "coordinates": [18.865083, 47.12975], "crs": "/4326"}}, {"type": "Feature", "id": "http://lod.squirrel.link/data/limes/pannoniainferior/336194fc-6a00-4b75-b592-2428ed4e0939_geom", "label": "Brigetio \u2013 Lager XVIII Geometry (336194fc-6a00-4b75-b592-2428ed4e0939_geom)", "properties": {}, "geometry": {"type": "Point", "coordinates": [18.16435, 47.6759], "crs": "/4326"}}, {"type": "Feature", "id": "http://lod.squirrel.link/data/limes/pannoniainferior/4255c519-733d-463a-be35-1190a3efb9c6_geom", "label": "Brigetio \u2013 Lager IV Geometry (4255c519-733d-463a-be35-1190a3efb9c6_geom)", "properties": {}, "geometry": {"type": "Point", "coordinates": [18.111389, 47.713781], "crs": "/4326"}}, {"type": "Feature", "id": "http://lod.squirrel.link/data/limes/pannoniainferior/427718f0-fd9e-491f-a3d8-fb1865807ab6_geom", "label": "Brigetio \u2013 Lager VI Geometry (427718f0-fd9e-491f-a3d8-fb1865807ab6_geom)", "properties": {}, "geometry": {"type": "Point", "coordinates": [18.176869, 47.707181], "crs": "/4326"}}, {"type": "Feature", "id": "http://lod.squirrel.link/data/limes/pannoniainferior/494b6ca6-68da-4339-a97f-6e80720a7b18_geom", "label": "Burgus Altinum 1 Geometry (494b6ca6-68da-4339-a97f-6e80720a7b18_geom)", "properties": {}, "geometry": {"type": "Point", "coordinates": [18.659958, 45.928017], "crs": "/4326"}}, {"type": "Feature", "id": "http://lod.squirrel.link/data/limes/pannoniainferior/515a97f2-f638-463a-b163-c11e67424da6_geom", "label": "Kastell Matrica Geometry (515a97f2-f638-463a-b163-c11e67424da6_geom)", "properties": {}, "geometry": {"type": "Point", "coordinates": [18.918, 47.300639], "crs": "/4326"}}, {"type": "Feature", "id": "http://lod.squirrel.link/data/limes/pannoniainferior/5241ed3a-fece-484f-b511-f8c0f67e85a6_geom", "label": "Kastell Dunaszekcs\u0151 Geometry (5241ed3a-fece-484f-b511-f8c0f67e85a6_geom)", "properties": {}, "geometry": {"type": "Point", "coordinates": [18.761297, 46.091147], "crs": "/4326"}}, {"type": "Feature", "id": "http://lod.squirrel.link/data/limes/pannoniainferior/528c4ba1-54df-4e32-9c98-8f1b36a3e939_geom", "label": "Burgus Annamatia 11 Geometry (528c4ba1-54df-4e32-9c98-8f1b36a3e939_geom)", "properties": {}, "geometry": {"type": "Point", "coordinates": [18.892464, 46.688792], "crs": "/4326"}}, {"type": "Feature", "id": "http://lod.squirrel.link/data/limes/pannoniainferior/55008a76-bd84-4f1f-900a-f81fcdd1fd28_geom", "label": "Burgus B\u00f6lcske (Burgus Annamatia 12) Geometry (55008a76-bd84-4f1f-900a-f81fcdd1fd28_geom)", "properties": {}, "geometry": {"type": "Point", "coordinates": [18.984194, 46.741556], "crs": "/4326"}}, {"type": "Feature", "id": "http://lod.squirrel.link/data/limes/pannoniainferior/59d5d1de-4d87-4d5f-b6e8-f370418aac7c_geom", "label": "Brigetio \u2013 Lager XVII Geometry (59d5d1de-4d87-4d5f-b6e8-f370418aac7c_geom)", "properties": {}, "geometry": {"type": "Point", "coordinates": [18.175536, 47.694386], "crs": "/4326"}}, {"type": "Feature", "id": "http://lod.squirrel.link/data/limes/pannoniainferior/65dd4a2c-83c8-406e-80e0-c5739c914d72_geom", "label": "Kastell Cuccium Geometry (65dd4a2c-83c8-406e-80e0-c5739c914d72_geom)", "properties": {}, "geometry": {"type": "Point", "coordinates": [19.375833, 45.223972], "crs": "/4326"}}, {"type": "Feature", "id": "http://lod.squirrel.link/data/limes/pannoniainferior/7e46c6a7-cec2-4c69-9771-adda533b0c4e_geom", "label": "Brigetio \u2013 Lager XII. XXXIII Geometry (7e46c6a7-cec2-4c69-9771-adda533b0c4e_geom)", "properties": {}, "geometry": {"type": "Point", "coordinates": [18.23495, 47.714019], "crs": "/4326"}}, {"type": "Feature", "id": "http://lod.squirrel.link/data/limes/pannoniainferior/720b2968-30a2-4064-b4fa-8c03319d8da4_geom", "label": "Kastell T\u00f3k\u00f3d Geometry (720b2968-30a2-4064-b4fa-8c03319d8da4_geom)", "properties": {}, "geometry": {"type": "Point", "coordinates": [18.676611, 47.726972], "crs": "/4326"}}, {"type": "Feature", "id": "http://lod.squirrel.link/data/limes/pannoniainferior/730f9c25-4a40-40bb-b024-f47ee5fee0b2_geom", "label": "Erdlager I\u017ea-Le\u00e1nyv\u00e1r 3 Geometry (730f9c25-4a40-40bb-b024-f47ee5fee0b2_geom)", "properties": {}, "geometry": {"type": "Point", "coordinates": [18.190125, 47.746794], "crs": "/4326"}}, {"type": "Feature", "id": "http://lod.squirrel.link/data/limes/pannoniainferior/76934c47-0f61-4c41-b7da-bae004dcd600_geom", "label": "Kastell Szentendre Geometry (76934c47-0f61-4c41-b7da-bae004dcd600_geom)", "properties": {}, "geometry": {"type": "Point", "coordinates": [19.073, 47.665], "crs": "/4326"}}, {"type": "Feature", "id": "http://lod.squirrel.link/data/limes/pannoniainferior/77971d57-fb4f-451d-801d-cde9a3cff37c_geom", "label": "Kastell Eszterg\u00f3m\u2013Hideglel\u0151skereszt Geometry (77971d57-fb4f-451d-801d-cde9a3cff37c_geom)", "properties": {}, "geometry": {"type": "Point", "coordinates": [18.821094, 47.812831], "crs": "/4326"}}, {"type": "Feature", "id": "http://lod.squirrel.link/data/limes/pannoniainferior/8585be01-6da3-4ad6-b096-bb26f5ca24d7_geom", "label": "Brigetio \u2013 Lager XIX Geometry (8585be01-6da3-4ad6-b096-bb26f5ca24d7_geom)", "properties": {}, "geometry": {"type": "Point", "coordinates": [18.153681, 47.708844], "crs": "/4326"}}, {"type": "Feature", "id": "http://lod.squirrel.link/data/limes/pannoniainferior/86e75d60-d1e3-477f-9830-1c916530259b_geom", "label": "Erdlager I\u017ea-Le\u00e1nyv\u00e1r 4 Geometry (86e75d60-d1e3-477f-9830-1c916530259b_geom)", "properties": {}, "geometry": {"type": "Point", "coordinates": [18.192594, 47.745078], "crs": "/4326"}}, {"type": "Feature", "id": "http://lod.squirrel.link/data/limes/pannoniainferior/86758651-756d-46e3-844b-1c63f0ca4b71_geom", "label": "Kastell Ad Statuas (V\u00e1rdomb) Geometry (86758651-756d-46e3-844b-1c63f0ca4b71_geom)", "properties": {}, "geometry": {"type": "Point", "coordinates": [18.68675, 46.248833], "crs": "/4326"}}, {"type": "Feature", "id": "http://lod.squirrel.link/data/limes/pannoniainferior/9eed5204-45ce-4045-952e-61d45661a85f_geom", "label": "Burgus Annamatia 16 Geometry (9eed5204-45ce-4045-952e-61d45661a85f_geom)", "properties": {}, "geometry": {"type": "Point", "coordinates": [18.886456, 46.697303], "crs": "/4326"}}, {"type": "Feature", "id": "http://lod.squirrel.link/data/limes/pannoniainferior/93b40ea3-5477-4f15-98e8-acbc0af281da_geom", "label": "Kastell Visegr\u00e1d\u2013Gizellamajor Geometry (93b40ea3-5477-4f15-98e8-acbc0af281da_geom)", "properties": {}, "geometry": {"type": "Point", "coordinates": [18.930583, 47.760917], "crs": "/4326"}}, {"type": "Feature", "id": "http://lod.squirrel.link/data/limes/pannoniainferior/96831b8f-ad80-40ae-be10-377cb43c8e13_geom", "label": "Kastell Meh\u00e1cs-K\u00f6lked Geometry (96831b8f-ad80-40ae-be10-377cb43c8e13_geom)", "properties": {}, "geometry": {"type": "Point", "coordinates": [18.683917, 45.956111], "crs": "/4326"}}, {"type": "Feature", "id": "http://lod.squirrel.link/data/limes/pannoniainferior/99ec9c4c-7b84-463b-9238-adce834944f4_geom", "label": "Erdlager I\u017ea-Le\u00e1nyv\u00e1r 5 Geometry (99ec9c4c-7b84-463b-9238-adce834944f4_geom)", "properties": {}, "geometry": {"type": "Point", "coordinates": [18.194897, 47.747486], "crs": "/4326"}}]}